,name,category,latitude,longitude,distance_from_center_km
0,Bankeråt,amenity,55.6834082,12.5651843,0.27939165677172006
1,Wining & Dining,amenity,55.6797762,12.5754143,0.5860478091464741
2,Flottenheimer,amenity,55.6802012,12.5750978,0.5369351598043383
3,Ristorante Amalfi,amenity,55.679433,12.575349,0.6137634348938327
4,Ankara,amenity,55.6811269,12.5741096,0.4186657586112247
5,Ibsens Hotel,tourism,55.6846523,12.566266,0.22438072175178383
6,Starbucks,amenity,55.683693,12.5709974,0.09300538302883622
7,Kalaset,amenity,55.6846984,12.566704,0.20160255485410475
8,Pintxos,amenity,55.6844442,12.5660522,0.2292826282477163
9,Sushi Nørregade,amenity,55.6818262,12.5712029,0.24983174170450062
10,Sticks'N'Sushi,amenity,55.6841991,12.5647608,0.30358167128267877
11,Cafe Munk,amenity,55.6843897,12.5673006,0.15306354678479397
12,H.C. Ørsted,tourism,55.680807,12.5673715,0.3672333403880092
13,Netto,shop,55.68107,12.572657,0.36760701304296733
14,Løven og hesten,tourism,55.6839761,12.5774308,0.4957840316529951
15,Kaffesalonen,amenity,55.6867256,12.5617007,0.5874740196571522
16,Sliders,amenity,55.6871145,12.5620604,0.5939094661614375
17,Kong Arthur,tourism,55.6847597,12.5649941,0.3033891433159092
18,Studenterhuset,amenity,55.681192,12.576282,0.5176397729377163
19,1899,amenity,55.6828339,12.5744665,0.3298799759530508
20,"Det Teologiske Fakultet, Københavns Universitet",amenity,55.6809781,12.5773893,0.5886731562162271
21,,amenity,55.687856,12.5621548,0.6431797042636471
22,Café Halvvejen,amenity,55.6809434,12.5739275,0.4262931516233119
23,,amenity,55.681389,12.5750693,0.44338680424253285
24,40,amenity,55.6816527,12.575973,0.47323111058988826
25,,amenity,55.680746,12.5726484,0.3983607409131584
26,Københavns Cykelbørs,amenity,55.6857484,12.5683839,0.2219736063928282
27,Netto,shop,55.6821226,12.5764493,0.4753851113287956
28,,shop,55.6826005,12.5770954,0.49504951402574787
29,Johan Herman Wessel og Johannes Ewald,tourism,55.6813367,12.5761813,0.5032796837156883
30,Netto,shop,55.683675,12.573028,0.21973629935891995
31,Kaffebaren Fiolstræde,amenity,55.6822824,12.5720569,0.23656610199024394
32,Hvide Lam,amenity,55.6821362,12.574042,0.3419438106436665
33,,amenity,55.6848551,12.5731619,0.2523603899943565
34,,amenity,55.6809251,12.5736803,0.4180155148205137
35,Lagkagehuset,shop,55.6829634,12.573528,0.26961605714321574
36,7-Eleven Kultorvet,shop,55.6821656,12.5746651,0.37330218521285957
37,McDonald's,amenity,55.6831218,12.5722211,0.1873127223341455
38,,amenity,55.6842882,12.5694343,0.04747873638025178
39,Niels Brock,amenity,55.6825046,12.5745879,0.3512539853711385
40,,tourism,55.6827061,12.5715425,0.17997769334175767
41,,amenity,55.6883543,12.5726669,0.5366693327347585
42,Tycho Brahe,tourism,55.6813004,12.5758935,0.49072533854474715
43,Water Art,tourism,55.6814245,12.5755539,0.4653141931605341
44,Vaisenhus Apotek,amenity,55.681653,12.575572,0.45187272753496904
45,,amenity,55.6814533,12.5754001,0.4555999001571822
46,Arnold Busck,shop,55.681117,12.5760384,0.5101509460947847
47,Ørsted Ølbar & Cafe,amenity,55.6812668,12.5645148,0.42914720415960456
48,Democratic Coffee,amenity,55.680835,12.573416,0.4159914376900228
49,Café Paludan,amenity,55.6803897,12.5732256,0.4508864093149058
50,Hornsleth,amenity,55.6805487,12.5771236,0.6028060361819974
51,Sole D Italia,amenity,55.6799188,12.5764619,0.6182177289650084
52,Huks Fluks,amenity,55.6800196,12.5756472,0.5749108520619925
53,Le Pavé,amenity,55.6797205,12.5754643,0.5928485149979058
54,Limone,amenity,55.680047,12.5755261,0.5675685730870221
55,Den glade Gris,amenity,55.6800207,12.5746175,0.5337951288265148
56,Cyklistbutikken 1905,shop,55.6831793,12.5676563,0.14165959007095183
57,Brinck Elektronik,shop,55.6854052,12.5675489,0.212590756353319
58,,amenity,55.685401,12.5674727,0.2150933394043113
59,La Fiorita,amenity,55.6835714,12.5649389,0.29197938005187674
60,Bibendum,amenity,55.6837431,12.56518,0.27529905321452547
61,Larry vs Harry,shop,55.6857939,12.5656649,0.3252438169884127
62,Cykelstad,shop,55.6850457,12.5670935,0.20278734506279839
63,,amenity,55.6846893,12.5665917,0.2074536530274108
64,,amenity,55.6832096,12.5677971,0.13239890399058482
65,Max's Bike,shop,55.6831168,12.5664605,0.21158882471164192
66,Profil Optik,shop,55.683237,12.5723907,0.19188415385087193
67,Lån & Spar,amenity,55.6839706,12.5721935,0.1666039284600303
68,7-Eleven,shop,55.6822901,12.5707486,0.19102996764131763
69,Min Købmand,shop,55.6821757,12.5629626,0.4552071809680349
70,Emmerys,shop,55.6874681,12.5622798,0.6082205451397166
71,Nilen,tourism,55.6860135,12.5647334,0.385939624548711
72,Tiberen,tourism,55.6864671,12.5652001,0.3983826309023307
73,,amenity,55.6863341,12.5704031,0.2798659354233984
74,,amenity,55.6797374,12.5616903,0.6752015005304635
75,,amenity,55.6800156,12.5617493,0.6517031728178198
76,,amenity,55.6796376,12.5630797,0.6224478088732085
77,Taffelbay,shop,55.6836054,12.5729417,0.21524506085567974
78,Mamma Che Gelato - La Fiorita,amenity,55.6833175,12.5650582,0.28916037597571237
79,,amenity,55.6837493,12.5688032,0.04883791768818495
80,,amenity,55.6838735,12.5688259,0.04562809244899455
81,,amenity,55.6839339,12.5702073,0.04193812886096787
82,,amenity,55.6842107,12.5700034,0.047688597836311124
83,,amenity,55.6841502,12.5691746,0.0394463006040953
84,,amenity,55.6840731,12.570328,0.05398600540169993
85,,amenity,55.6843498,12.5696413,0.05406206687779987
86,,amenity,55.6835001,12.5697969,0.043664643587334635
87,,amenity,55.6836404,12.5703371,0.05549469772649464
88,,amenity,55.684118,12.5659261,0.22972950301995856
89,,amenity,55.6839985,12.5658027,0.23623923430109658
90,,amenity,55.6833833,12.5699723,0.060004823087069704
91,,amenity,55.6837839,12.5701467,0.038580693997485024
92,,amenity,55.6795354,12.5745154,0.5745260357950353
93,,amenity,55.6797093,12.5746843,0.5643836154734366
94,,amenity,55.6817399,12.5631318,0.4681163826815908
95,,amenity,55.6818865,12.5628181,0.47748678894383284
96,,amenity,55.6797147,12.5722718,0.4929500135916903
97,,amenity,55.6807945,12.5730657,0.40728994048218303
98,,amenity,55.6804164,12.5730389,0.4423965027446258
99,,amenity,55.6798418,12.5728994,0.49516411703160085
100,,amenity,55.6833075,12.5657946,0.24436607663794613
101,,amenity,55.6805613,12.5713308,0.3846806653119059
102,,amenity,55.6834361,12.5653092,0.27110456493241125
103,,amenity,55.683436,12.5651189,0.2828957037033259
104,,amenity,55.6809317,12.5621549,0.5685545928396425
105,,amenity,55.6810014,12.5620987,0.5670487084154341
106,La Rocca,amenity,55.6847357,12.5661151,0.2367901052980723
107,Höst,amenity,55.6832824,12.5661022,0.2264975107969053
108,,amenity,55.6822365,12.5769144,0.49746399671615554
109,,amenity,55.6821102,12.5765215,0.48009484142401904
110,,amenity,55.6831032,12.5736109,0.2691458267013226
111,,amenity,55.6809594,12.5762975,0.5337358680813457
112,,amenity,55.6827053,12.5774884,0.5157445031985628
113,,amenity,55.6851821,12.5671874,0.20868204888825642
114,365discount,shop,55.6842272,12.5676544,0.12587338353176225
115,,amenity,55.6806072,12.5723378,0.40303618206339703
116,,amenity,55.6805346,12.572531,0.41566668485409464
117,,amenity,55.6801943,12.5723405,0.44494817426018896
118,,amenity,55.6805195,12.5718309,0.39932333024591693
119,Funchs Vinstue,amenity,55.6845001,12.5674404,0.1503263154690482
120,Hårtotten,shop,55.6861714,12.5678571,0.2778214544410817
121,,amenity,55.685731,12.567568,0.2421450250573297
122,,amenity,55.685201,12.567353,0.2029283629641153
123,,amenity,55.685292,12.567053,0.22330818181721862
124,A-cut,shop,55.6839351,12.5673542,0.138402076915606
125,Jagtstuen,amenity,55.6839289,12.5684807,0.06768848445543156
126,La Petanque,amenity,55.683478,12.567996,0.10697832533547956
127,Cykelsmeden i Nørregade,shop,55.6817744,12.571229,0.2557609728551599
128,Loke Cykler Aps,shop,55.6875218,12.5621507,0.618268181199481
129,,amenity,55.688015,12.572615,0.5004255180050321
130,,amenity,55.6855885,12.5702842,0.19714331113544384
131,,amenity,55.6856787,12.569889,0.2028346593782545
132,Joe & The Juice,amenity,55.6831401,12.5726195,0.20927825385424184
133,Kultorvets Ure Guld Sølv,shop,55.682894,12.573599,0.27669733145770925
134,Skaal,amenity,55.682326,12.573648,0.3095811628455897
135,Phønix,amenity,55.6823983,12.5736627,0.3059749210651366
136,Fjällräven,shop,55.6820992,12.5737561,0.3296867154998468
137,Silvan Kultorvet,shop,55.6821539,12.5744011,0.35978019971990904
138,Ducky Memories,shop,55.6819691,12.5744357,0.3728890762904469
139,Louis Nielsen,shop,55.681891,12.574813,0.39742147194505895
140,Espresso House Købmagergade,amenity,55.6814268,12.5749793,0.43633622829123714
141,Optikkens Hus,shop,55.681582,12.575108,0.43231093367900025
142,Sporvejen,amenity,55.679453,12.575676,0.6244510329455445
143,Gråbrødretorv 7,shop,55.679758,12.576202,0.6199246208920643
144,Guldsmedie Sofie Lunøe,shop,55.679813,12.576293,0.6193251481763985
145,Britt-K,shop,55.6797082,12.577476,0.6803591857058728
146,Gudlins,shop,55.6796266,12.5773446,0.6805968050209165
147,,amenity,55.6823041,12.5738919,0.3237678448286583
148,Smag,amenity,55.6836653,12.5697763,0.026538147464351007
149,Slagter Lund,shop,55.6838181,12.5690091,0.03452885876548734
150,Fiskerikajen,shop,55.6840434,12.5692934,0.025477618940490727
151,Sushi Lovers Torvehallerne,amenity,55.6840839,12.5692331,0.03136963108759087
152,Cleavers Meatmarket,shop,55.6838489,12.5690851,0.02938663025761445
153,Hav.dk,shop,55.6840041,12.5692478,0.024444639848601284
154,Summerbird chocolaterie,shop,55.6835992,12.5697064,0.03136272161830943
155,A Xoco by Anthon Berg,shop,55.68364,12.569589,0.025373799951168906
156,Blomstergrossisten,shop,55.683708,12.569754,0.021810712244652565
157,Sweet Valentine,shop,55.6837627,12.5698844,0.023955260678679674
158,,amenity,55.6840194,12.5700644,0.036473652928177794
159,Un Mercato,amenity,55.6840139,12.5700197,0.03370887127693807
160,Tapa del Toro,amenity,55.6840123,12.5694155,0.018300751393826965
161,Ma Poule,amenity,55.6839447,12.5693782,0.013908438906053635
162,,amenity,55.6840273,12.5773653,0.4918389172404457
163,,amenity,55.6840042,12.5773256,0.4892564392536659
164,,amenity,55.6839317,12.5774922,0.4995494435891901
165,Message,shop,55.6808998,12.5766718,0.5565535648117383
166,Matas,shop,55.6814736,12.5748948,0.4289332229041399
167,Telia København C,shop,55.681648,12.5747471,0.4096987281979626
168,Normal,shop,55.681773,12.5748942,0.4090284042355576
169,Irep.dk,shop,55.6817057,12.5746764,0.4022845249056256
170,Miniministeriet,shop,55.6821132,12.5734652,0.3142248404831958
171,3Butikken,shop,55.68276,12.5734613,0.2751009187912339
172,Nørreport Bodega,amenity,55.682421,12.571505,0.20253111451598005
173,Eventyrsport,shop,55.6827751,12.5702555,0.1293780882288514
174,,shop,55.6823043,12.571119,0.19998107744559382
175,,amenity,55.679452,12.567063,0.5158559539179217
176,Cafe Globen,amenity,55.6813135,12.5642273,0.43928309830731144
177,Det Lille Apotek,amenity,55.680325,12.5745687,0.5050953173494933
178,,amenity,55.6802131,12.5742628,0.5033152712228967
179,Tessies,shop,55.6804378,12.5732043,0.44560424652479547
180,Den Franske Bogcafe,amenity,55.6805124,12.5731699,0.4373788954045303
181,Danish Souvenirs,shop,55.6806053,12.5731141,0.42672669943276276
182,Gudrun Sjödén,shop,55.680965,12.57269,0.37863925276109517
183,Legetøjshuset Danmark,shop,55.681201,12.572498,0.3499374036344067
184,Sungifu,shop,55.681362,12.5724136,0.33195876673317926
185,Uldstedet & Gepard,shop,55.6814541,12.5723514,0.32122988826959736
186,Scurry Hub,amenity,55.6815692,12.5725665,0.31846107249091415
187,Mathilde Coiffure,shop,55.6815003,12.5723248,0.3160140545694606
188,CC Pels Design,shop,55.6814716,12.5723036,0.3179550929578751
189,SACO Hair,shop,55.6816466,12.5725155,0.3096385482314613
190,My Trendy Phone,shop,55.6815684,12.5722821,0.30821548300586943
191,Two Danes,shop,55.6816818,12.572199,0.29483158109293
192,Lofina,shop,55.6819057,12.5720313,0.2683565893003241
193,Vangsgaards,shop,55.681762,12.572435,0.2963547637304656
194,Stine & Ko,shop,55.6819762,12.5722389,0.2699888507724309
195,Fiol Optik,shop,55.682061,12.57221,0.2615278993942357
196,Bella Moda,shop,55.682114,12.572185,0.2559985055121975
197,Extrem Fashion,shop,55.6821416,12.5718919,0.24202528936149212
198,Den Kinesiske Butik,shop,55.682279,12.5722918,0.2469277232082148
199,Pompkins,shop,55.6823503,12.5727998,0.26508068237672133
200,Le Bix,shop,55.6821786,12.5729983,0.28696331724602037
201,V-tex Fashion,shop,55.6823034,12.5731686,0.2864918194541104
202,Kogsbøl Antik,shop,55.6821552,12.5731632,0.29654676310923234
203,Quickstep,shop,55.682262,12.5734021,0.30100413654654345
204,Kirkens Genbrug,shop,55.682133,12.573274,0.3034860840249855
205,Lotus House - Nail Spa,shop,55.6833267,12.5740491,0.28924687635673174
206,San Giorgio's,amenity,55.6835622,12.5739764,0.28041073104906955
207,Kongens Klæ'r,shop,55.683484,12.574282,0.30061217807595236
208,,amenity,55.6838117,12.5744709,0.3095158561302213
209,Brdr. Price,amenity,55.6839789,12.5743876,0.3044699752375205
210,Ellen Salon,shop,55.683206,12.574356,0.3110581615393237
211,Rags & Bags,shop,55.6841104,12.574782,0.3301371435091743
212,Clauds Hair Stylist,shop,55.6833747,12.5754807,0.37697875148076837
213,Arts d' Afrique,shop,55.683125,12.57579,0.40102997161672227
214,Schønnemann,amenity,55.682815,12.576023,0.4236002319745532
215,Anemone Teatret,amenity,55.682608,12.576146,0.4378658287028911
216,Gallerie Rasmus,shop,55.68239,12.575941,0.4342674155431548
217,El Meson,amenity,55.682357,12.575696,0.42149633145102783
218,Suhrs Højskole - Madakademiet,amenity,55.682275,12.575293,0.40231636626090994
219,City Vin,shop,55.6823726,12.576767,0.4834205258520528
220,Bering Flowers,shop,55.682343,12.577338,0.518360900268262
221,Galleri Eje,shop,55.6835267,12.5770324,0.472099734998907
222,Rejsecenter Norge,shop,55.683659,12.5765442,0.4404772597370686
223,Mads Heindorf,shop,55.6836991,12.5764181,0.43234042733551376
224,Kunsthandel Nina J,shop,55.683746,12.5762505,0.421609020956888
225,Jazzcup,shop,55.6837747,12.5761245,0.4135957950578292
226,Nørrebro apotek,amenity,55.68742,12.562417,0.598203676244963
227,Nørreport Cykler,shop,55.6831696,12.5708618,0.11324007639951694
228,Zahida,amenity,55.6845789,12.5697732,0.0804917879518182
229,,amenity,55.6854636,12.564988,0.3376171875994622
230,,amenity,55.6828709,12.5676925,0.16113985434454992
231,,amenity,55.6830493,12.5691958,0.09373324991260881
232,,amenity,55.6831506,12.5677368,0.1392316598430265
233,,amenity,55.683379,12.5682889,0.09620398833915257
234,Q-Park Nørreport (Israels Plads),amenity,55.6825801,12.5679823,0.17396741484545666
235,,amenity,55.6825058,12.5685384,0.16438628170590494
236,Oxholm Room,shop,55.6882439,12.5618087,0.6889361867315991
237,Oxholm Hall,shop,55.6881056,12.561661,0.6848344630148043
238,,amenity,55.6828097,12.564423,0.3433776844330493
239,,amenity,55.6823137,12.5638168,0.40001695179299807
240,,amenity,55.6800363,12.5635728,0.5686074088245991
241,David,tourism,55.6793868,12.5720603,0.523172657174383
242,Gorki,amenity,55.6818289,12.5633186,0.4529749444338096
243,Vilhelm Thomsen,tourism,55.6796808,12.57209,0.49266633819974137
244,The Globe,amenity,55.681795,12.5709215,0.24625525103380877
245,Den døende galler,tourism,55.6821186,12.5663783,0.2787861151266358
246,Anders Sandøe Ørsted,tourism,55.6821325,12.5658109,0.3043715904604947
247,Valdemar Holmer,historic,55.6871976,12.5695526,0.3708271596531366
248,Dr. Louises Bro,amenity,55.6863922,12.56491,0.4053033412464165
249,,amenity,55.686432,12.564943,0.40690844305300444
250,Sømods Bolcher,shop,55.6819425,12.5712899,0.24055517819913558
251,,amenity,55.6819182,12.5714975,0.2491191995008448
252,LetsGo,amenity,55.6810563,12.5643402,0.453172747640478
253,Nicolai,shop,55.681977,12.5711392,0.2329204628119684
254,Abrikos,amenity,55.682131,12.5711248,0.2171412668763218
255,Tvis Køkkener - København City,shop,55.6801237,12.5636327,0.5588281719826498
256,,amenity,55.6876837,12.5682904,0.432283802891583
257,,amenity,55.6881675,12.5682263,0.48600967824121644
258,,amenity,55.6881433,12.5687249,0.47894595148652835
259,The Jane,amenity,55.6801316,12.5761475,0.587470270331018
260,Violetta Jepsen - mioæstetik og kropsterapi,amenity,55.6838058,12.5632516,0.396310562599412
261,Niels Bohr,tourism,55.6799035,12.5730706,0.4936902109674098
262,,amenity,55.6807185,12.5680812,0.3625216573528908
263,,amenity,55.6807502,12.5681209,0.3584752578188553
264,,amenity,55.680786,12.5681715,0.3538242583734291
265,,amenity,55.6806851,12.5682445,0.36365998355018464
266,,amenity,55.6847791,12.5716616,0.16714011157963682
267,,amenity,55.6848264,12.5717193,0.17323375531517196
268,Dr. Martens,shop,55.6812579,12.572744,0.35314558662038814
269,Centre for Online and Blended Learning,amenity,55.687321,12.5674285,0.40708365444464634
270,,amenity,55.6825261,12.570525,0.1613580071684737
271,Halifax,amenity,55.6854488,12.5666541,0.25342826418068554
272,Østerlandsk Thehus,shop,55.6828962,12.5704171,0.12102312946839314
273,Synoptik,shop,55.6832501,12.5709778,0.11299691979111649
274,Kaffe-The-Vin,shop,55.683211,12.5738986,0.2830411671256881
275,,amenity,55.6830326,12.5713879,0.14824201866709838
276,Siddende unge mennesker,tourism,55.6869908,12.5626283,0.5572929960020137
277,7-Eleven Nørrebrogade,shop,55.6872928,12.5618678,0.6156615526852183
278,Cykel Chefen,shop,55.6820591,12.5616098,0.5385588200665895
279,effektpedaler,shop,55.6817933,12.5632784,0.4571542058437162
280,Søren Ged's Garage,amenity,55.684032,12.5674679,0.13232455638612622
281,Barkowski,amenity,55.6846268,12.5675944,0.14935690303478258
282,City Piercing & Tattoo,shop,55.6848357,12.5678603,0.15148055512395558
283,Skandinavisk Yoga og Meditationsskole,amenity,55.68187,12.57448,0.3815113714612478
284,Tatto-Liz,shop,55.6821211,12.5719105,0.2445489680743305
285,Palæo Torvehal 1 Stade E1-F1,amenity,55.6838775,12.5691044,0.02812898252653743
286,Nulpunkt Nørreport,historic,55.683794,12.5715304,0.1247582974941247
287,Trattoria Italiana,amenity,55.6800752,12.5764486,0.605359943146847
288,"Cafe og Ølhalle ""1892""",amenity,55.6849944,12.5702547,0.13310232492448607
289,L'Anfora,amenity,55.6834866,12.577275,0.487679529399469
290,7-Eleven,shop,55.6832973,12.5718782,0.15951949452624475
291,7-Eleven,shop,55.6836424,12.5723047,0.1749929799027245
292,DSB,tourism,55.6830694,12.5716488,0.15903658864964776
293,Roberta,amenity,55.6878053,12.5629751,0.6027887370123427
294,Pizzeria Imperia,amenity,55.684422,12.568,0.11549792005584462
295,Kongernes Samling Rosenborg,tourism,55.6857558,12.5773221,0.5321085233974682
296,Riz Raz,amenity,55.6801828,12.5742858,0.5068945286294152
297,Nørrevold Is & Pizza,amenity,55.6834947,12.5727934,0.20810650042204956
298,Spejder Sport,shop,55.6830662,12.5659381,0.24412897699706806
299,,amenity,55.6809407,12.5674056,0.35264125272429786
300,,amenity,55.6809455,12.5672706,0.3554887952389777
301,,amenity,55.6809042,12.5671445,0.36293718121817586
302,,amenity,55.6807468,12.5671451,0.378919678638216
303,,amenity,55.6807323,12.5671769,0.37960878216444816
304,,amenity,55.680715,12.5672178,0.38038017283276787
305,,amenity,55.6807008,12.567252,0.3810174089880886
306,,amenity,55.6807465,12.5672946,0.3752933560731351
307,,amenity,55.6807729,12.567261,0.37338444924026454
308,,amenity,55.6808125,12.5672478,0.36964548700567157
309,,amenity,55.680849,12.5672748,0.3652411679706542
310,,amenity,55.6808703,12.5673234,0.361865897721677
311,,amenity,55.6808771,12.5673894,0.3595774909291002
312,,amenity,55.6808599,12.567462,0.35965728230472616
313,,amenity,55.6806318,12.566611,0.40489291124623666
314,,amenity,55.6806064,12.5666206,0.4071368685738472
315,,amenity,55.6804211,12.5666466,0.4249283911989595
316,,amenity,55.6803977,12.566655,0.4270563347012421
317,,amenity,55.6803747,12.5666652,0.4291019283346561
318,,amenity,55.6803517,12.5666766,0.43112231440325105
319,Ecco,shop,55.6815257,12.5752571,0.44358300557791996
320,Rosenborg Cykler,shop,55.6833694,12.5737697,0.27106947697889444
321,Friluftsland,shop,55.6855043,12.567295,0.23102737087191424
322,Friluftsland,shop,55.6858837,12.5662611,0.30536189217858184
323,HugsAndFood,amenity,55.6815396,12.5629914,0.48724076194746735
324,Turesen,amenity,55.6813932,12.5639983,0.4448128759481805
325,Uma,amenity,55.6813469,12.5645739,0.42040660394943224
326,Jacques D.,amenity,55.6878755,12.5702372,0.44838281286090653
327,Søernes Bådudlejning,amenity,55.6863569,12.5619001,0.5553862001856715
328,Frøken Sandwich,amenity,55.6801785,12.5634854,0.5605583505097661
329,Da Aldo pizzeria,amenity,55.6846134,12.5668798,0.18746351258764798
330,Sticks 'N' Sushi Nansensgade,amenity,55.6843041,12.5658742,0.2363527680199603
331,La Perla,amenity,55.6824815,12.5769236,0.48871939882040466
332,Hija de Sanchez,amenity,55.6839837,12.569138,0.029062381081473684
333,The American Pie Company,amenity,55.679689,12.574734,0.5680274162997664
334,Le Petit,amenity,55.6840131,12.5691084,0.03226014252050584
335,Bar' Vin,amenity,55.680739,12.576194,0.5439489661472163
336,African Touch,shop,55.6838237,12.5716225,0.1303759002767708
337,,amenity,55.683991,12.5722301,0.16907104470562287
338,The Olive,amenity,55.6812232,12.5713172,0.31460428415561603
339,Burger King,amenity,55.6831891,12.5729917,0.22919294874786122
340,Cafe Beirut,amenity,55.679545,12.574328,0.5672980376879129
341,Strøm Bar,amenity,55.6801783,12.5760558,0.5797153697622764
342,Joe & The Juice,amenity,55.6815831,12.5754551,0.4500783867155347
343,Tante T Torvehal 2 Stade B2,amenity,55.6836202,12.5698704,0.034022707366986
344,Café Luther,amenity,55.685604,12.567869,0.22045416272209778
345,Arbejdermuseet i København Cafeteria,amenity,55.6849567,12.5702664,0.1294052431520068
346,Grød,amenity,55.683719,12.5699849,0.0318647443803614
347,Fresh Market,shop,55.6840173,12.5695137,0.01691026506334386
348,Durum Bar Nørreport,amenity,55.682201,12.570789,0.2011545634644429
349,Kafe Knud,amenity,55.6798639,12.5749237,0.5593224236820252
350,Original Coffee Dosseringen,amenity,55.688135,12.56342,0.6119852232120081
351,Tycho Brahe,historic,55.6865971,12.5759391,0.5038198938667419
352,Espresso House,amenity,55.6842174,12.5705921,0.07622069136176951
353,Friluftsland,shop,55.6845423,12.5697405,0.07613327098294466
354,Stof 2000,shop,55.6844412,12.5700289,0.0706485938179568
355,Beauty by Angela,shop,55.6836379,12.5744155,0.3070312163586941
356,Det ny Scala,amenity,55.6882823,12.5618437,0.6904192366027481
357,Boulebar Sankt Petri,amenity,55.680944,12.571343,0.34439003664705875
358,Feel Good,amenity,55.6844559,12.5673656,0.15231509782819605
359,Cafiola,amenity,55.6813099,12.5727159,0.34738307351152203
360,Slurp Ramen Joint,amenity,55.6851096,12.5671847,0.20322403878347906
361,Hav2Go,amenity,55.683903,12.5690676,0.030683345342072725
362,Brioche Dorée Hal2,amenity,55.6835405,12.5697378,0.03818859505115721
363,Boutique Fisk,amenity,55.6838692,12.5689486,0.037905075976517835
364,Cafeen,amenity,55.679528,12.569941,0.4836978061293625
365,Lagkagehuset,shop,55.6882624,12.563579,0.6169228781999966
366,Goethe Institut,amenity,55.6827557,12.573185,0.25990683704166356
367,The Book Trader,shop,55.679774,12.574862,0.5650269257548102
368,Skindhuset,shop,55.6808489,12.5760004,0.5267621944068592
369,Size?,shop,55.6809918,12.5764446,0.5389716304782307
370,Folkekirkens Nødhjælp,shop,55.6815106,12.5725805,0.32424213605398144
371,Sound,shop,55.68136,12.572689,0.3418469160195503
372,Sam,shop,55.6814922,12.5723505,0.317659638534242
373,Emmerys,shop,55.6823118,12.5766249,0.47745124297769154
374,Krystal Sandwich,amenity,55.6810244,12.5743024,0.43528867135870625
375,Wild Cat Piercing & Tattoo,shop,55.6829029,12.5731424,0.250094098512066
376,Mills,shop,55.683087,12.576041,0.4173523229175322
377,NEYE,shop,55.6820893,12.5746803,0.3784984543185983
378,Søstrene Grene Kultorvet,shop,55.6823811,12.5746491,0.3608238434863154
379,Tandlægerne,amenity,55.6830525,12.5754639,0.38281246729731944
380,The Body Shop,shop,55.6819383,12.5745074,0.37854854909586216
381,Inge Lehmann,tourism,55.6799134,12.5731771,0.495751557898737
382,Café G,amenity,55.680184,12.5754088,0.5512714635119073
383,Butik Salam,shop,55.6797512,12.5745467,0.5556230387869557
384,Hansel & Gretel,shop,55.6798969,12.5749812,0.5586035181579002
385,Farfar,amenity,55.6800374,12.5748724,0.5420565801303241
386,City Briller,shop,55.6820329,12.5708522,0.21997923031752717
387,Salon Shine Cut,shop,55.6816927,12.5709773,0.25815398497935416
388,Folketeatret,amenity,55.6814646,12.5709388,0.2813445902660627
389,Miss Nicolai,shop,55.6819319,12.5711949,0.23896126892443637
390,,amenity,55.6827028,12.5708727,0.15397262756950564
391,Nr.30,amenity,55.6818869,12.563396,0.4455373516359776
392,MiJo,shop,55.6831925,12.5649256,0.3004900404698235
393,Organic,shop,55.6842013,12.565764,0.24110990961341416
394,Kendt,shop,55.6830453,12.5647625,0.3148008246883436
395,Tattoo-Liz,shop,55.6841641,12.5657254,0.24291041277959358
396,Møntvask,shop,55.6849102,12.5669507,0.20061976130842366
397,Frisør Peter Sonberg,shop,55.6841321,12.5656906,0.24462369081375804
398,Nicolai,shop,55.6820427,12.5704243,0.21039374873208608
399,In-Hair,shop,55.6814271,12.5741737,0.39791193805127695
400,COS,shop,55.6809538,12.5733161,0.40159443843458303
401,Den Kinesiske Købmand,shop,55.6818423,12.57016,0.22864082460711638
402,SIIM A,shop,55.6819297,12.5738214,0.34448172516674636
403,Carhartt,shop,55.6810051,12.5741806,0.4316480484241027
404,Line Bo,shop,55.6819489,12.5736257,0.3335993155125819
405,Beat-Bop,shop,55.6818465,12.573888,0.3535781285541113
406,Loft,shop,55.6817584,12.5739479,0.3627624630664576
407,Nadia Ejo,shop,55.681519,12.573941,0.3802390065341637
408,OSV,shop,55.68135,12.5742421,0.4069298108002807
409,No Stress Bar DK,amenity,55.6814236,12.5712927,0.29325611539924734
410,Kopan Rice,amenity,55.6844886,12.5713889,0.13473195204231803
411,Fars Dreng,amenity,55.6823334,12.5727767,0.265169780097743
412,Hairwerk,shop,55.6794141,12.5685537,0.4997122301748427
413,Bootleggers,amenity,55.6835862,12.5702644,0.054673760994528905
414,Aamanns 1921,amenity,55.68021,12.57594,0.5720799797699266
415,Cafe Midtown CPH,amenity,55.6813173,12.5695147,0.2838716695103859
416,"Gasoline Grill, Niels Hemmingsens Gade",amenity,55.6795644,12.5773813,0.6870719524220852
417,One Of Many Cameras,shop,55.6801566,12.5763594,0.5950236755175811
418,,tourism,55.6797739,12.5758199,0.6026244480194656
419,Massage og Behandling Klinik,shop,55.683701,12.56318,0.401181859750997
420,Jagger København K,amenity,55.680834,12.5769821,0.5766390107228121
421,,amenity,55.6800571,12.5761546,0.5936836132264167
422,,amenity,55.68432,12.5739059,0.27852048999464085
423,,amenity,55.6825933,12.5715246,0.18845446382892939
424,,amenity,55.6823031,12.5745788,0.3610071054882265
425,Amager Bryghus Taproom,amenity,55.6843528,12.5728215,0.21269896661916268
426,Cinnober,shop,55.6818324,12.5759608,0.46245379476052945
427,PhoneLab,shop,55.6796858,12.5773622,0.6768445459894459
428,,amenity,55.6840414,12.5669508,0.1647174673237335
429,,amenity,55.6858897,12.5680595,0.24397411831666962
430,,amenity,55.6815602,12.5697378,0.25708695467662457
431,Natalie Zahle,tourism,55.6812578,12.5664171,0.35106802254806163
432,,amenity,55.6814165,12.5673755,0.30522083180283877
433,Loop,shop,55.6814533,12.5726104,0.33051667534335955
434,Weekdays,shop,55.6809492,12.5765855,0.5489212299898935
435,Wax & Skincare,shop,55.6830443,12.5700176,0.09616913636556182
436,Discobolus,tourism,55.6869187,12.5745272,0.4619591200510863
437,,amenity,55.6881584,12.576469,0.6462318218912605
438,Selma,amenity,55.6847517,12.5699647,0.10188589978442815
439,Queens Sushi,amenity,55.681577,12.571293,0.27749422667680335
440,Pincho Nation,amenity,55.6825334,12.5718473,0.20712865964497099
441,Ark,amenity,55.6852177,12.5682623,0.17085266506182237
442,Food Club,amenity,55.6880399,12.5632502,0.6106774564393123
443,Décor,shop,55.6834379,12.5679517,0.11137266602520063
444,Trattoria SUD,amenity,55.6847132,12.5683542,0.12061081360651643
445,Rødder & Vin,amenity,55.6883505,12.561933,0.6919444880456506
446,Mahalle Nansensgade,amenity,55.6837192,12.5655588,0.25166471574384575
447,Kabys,amenity,55.68364,12.5654606,0.25854119428273237
448,Maduro,shop,55.685581,12.5662704,0.28107901446416794
449,Tao’s mad,shop,55.6803763,12.5629151,0.5703387828433468
450,Bostedet Caroline Marie,amenity,55.6850844,12.5709456,0.1614526016262059
451,Westfood,amenity,55.6840359,12.5693615,0.022280357794283914
452,Bostedet Caroline Marie Køkken,amenity,55.6850911,12.570992,0.1636771476273167
453,,tourism,55.6868211,12.5752069,0.48448901096932573
454,Emmery's,shop,55.6835193,12.5714447,0.12523352215943892
455,,amenity,55.6835604,12.571853,0.14875338637649488
456,,amenity,55.6835498,12.5718801,0.15068521038180271
457,,amenity,55.6840553,12.5732249,0.23202933137368603
458,,amenity,55.6829212,12.571523,0.16269453624695837
459,,amenity,55.6829673,12.5715331,0.1599156311586721
460,,amenity,55.6829469,12.5716491,0.16704985043281945
461,,amenity,55.6828966,12.5715727,0.16685035428004252
462,,amenity,55.6829601,12.5715204,0.15979890934277882
463,,amenity,55.6829382,12.5716337,0.16688410292685996
464,,amenity,55.6828845,12.5715586,0.16705436333989296
465,,amenity,55.682632,12.5715733,0.1873008268759511
466,,amenity,55.6826161,12.5715465,0.18747137602266425
467,,amenity,55.6867884,12.5758295,0.5116086935298185
468,Citizen Cocktailbar,amenity,55.6794251,12.5763531,0.653938952606219
469,,amenity,55.6856742,12.574065,0.3479901576514582
470,Ys,amenity,55.683934,12.5733835,0.24117147308142323
471,Time’s up Vintage,shop,55.6813163,12.5746689,0.4292705981923232
472,Den belvederiske Apollon,tourism,55.6813024,12.5669751,0.3283000850628728
473,Silen med bacchusbarn,tourism,55.6812885,12.567791,0.3076815460144588
474,Vinsugende satyrdreng,tourism,55.681674,12.5688378,0.24823860654374597
475,Jeanne d'Arc i Domrémy,tourism,55.680933,12.5664702,0.3798158188749001
476,Sliberen,tourism,55.6805251,12.5667268,0.41230538903919356
477,Bryderne,tourism,55.6796286,12.5657387,0.5293220045344504
478,Satyr med klangbækkener,tourism,55.6799134,12.5649515,0.5267495850067799
479,,amenity,55.6796626,12.5733604,0.5258555336605902
480,,amenity,55.6797091,12.5733552,0.5211021063577306
481,,amenity,55.6796931,12.5732731,0.5203411635805588
482,,amenity,55.6796795,12.5735709,0.5303650513427218
483,,amenity,55.6797654,12.5735191,0.520407316006695
484,,amenity,55.6797911,12.5735067,0.517522870615078
485,Dahls Flagfabrik,shop,55.6842331,12.5726019,0.19617506997622386
486,Happiness,tourism,55.6841524,12.5769371,0.46566579713271095
487,,tourism,55.6831395,12.5743336,0.3115317540914516
488,Døden & moderen,tourism,55.6797049,12.5706574,0.46857614879384146
489,,tourism,55.6863609,12.5737256,0.38215545982130594
490,Forex,amenity,55.6835344,12.5728367,0.20995192194325357
491,Guldkjær,shop,55.6835668,12.5729044,0.21355082328838781
492,Brøg Litteraturbar,amenity,55.6811695,12.5725843,0.35579822062613303
493,Il Mattarello,amenity,55.6836258,12.5698213,0.03176793030239452
494,Zahle Kantine,amenity,55.6821041,12.5690482,0.1987972077708458
495,20 grams,amenity,55.6822653,12.572321,0.24930223714633246
496,Yaffa,amenity,55.6796755,12.575417,0.5949082337125765
497,Seiers Antikvariat,shop,55.6839698,12.5658515,0.2329967797254904
498,Mandøes Antikvariat,shop,55.6835941,12.56502,0.2866322513740826
499,Byens Antikvariat,shop,55.6840144,12.5659025,0.23009364769849122
500,Faraos Cigarer,shop,55.6795445,12.5746222,0.5773602970752235
501,,amenity,55.6859533,12.577164,0.5322104548863145
502,,amenity,55.6859682,12.5771746,0.533535656977628
503,,amenity,55.6858907,12.5770267,0.5214047110643902
504,Hair by Gothers,shop,55.6862777,12.5674924,0.2980148454372094
505,,amenity,55.6805566,12.5651244,0.46192490252455304
506,,amenity,55.6850844,12.573874,0.3038197379961836
507,,amenity,55.6863376,12.5741372,0.3985906203568324
508,,amenity,55.685051,12.5732996,0.2701292183304181
509,,amenity,55.6863502,12.5759965,0.49070751964864673
510,Gury's Beauty Shop,shop,55.6822998,12.5642511,0.37628389367014453
511,,amenity,55.6861911,12.5735926,0.3627377858182791
512,,amenity,55.6867698,12.5739506,0.42547492497194306
513,,amenity,55.6797072,12.5652811,0.5353827761475872
514,,amenity,55.6850154,12.5733297,0.269883059439396
515,Olsson møbler,shop,55.6866712,12.5661691,0.37780334966945334
516,,amenity,55.6831565,12.5636128,0.3818172289391369
517,,amenity,55.681305,12.566716,0.33639774173516357
518,,amenity,55.6825346,12.5678256,0.18380557582147336
519,,amenity,55.6797466,12.5651827,0.5347469874153138
520,,amenity,55.6818605,12.5650231,0.3619789166826445
521,,amenity,55.681097,12.566362,0.36789824299741775
522,,amenity,55.6812793,12.5675805,0.3136312638980444
523,,amenity,55.6826074,12.5678296,0.17717519158093806
524,,amenity,55.6826563,12.5678323,0.172791858895509
525,Zaggis Cafe,amenity,55.6858187,12.5655946,0.33038955605601233
526,Lene Vibe,shop,55.6809311,12.5757851,0.5104965482048068
527,Børnenes boghandel,shop,55.6809223,12.5761072,0.5268291400763743
528,,amenity,55.6808287,12.5664954,0.38906221062925844
529,,shop,55.6833412,12.5678185,0.1237109404293629
530,Paustian Design Management 2,amenity,55.679851,12.576948,0.6452959006414168
531,Desserthuset,amenity,55.6858092,12.5665215,0.28823416457523127
532,Peter med hane,tourism,55.6799967,12.5705436,0.43539127346891515
533,Unity Technologies,amenity,55.6801825,12.5769084,0.618426393634091
534,Bobuska,amenity,55.6845195,12.57146,0.1403377846837818
535,Den grønne kutter,amenity,55.6840662,12.5692972,0.027342706677055358
536,,amenity,55.6821722,12.5667888,0.2565029471215437
537,,amenity,55.682159,12.5666885,0.26188335258725776
538,,amenity,55.6821817,12.5669075,0.25071237766066884
539,,amenity,55.6821445,12.5665946,0.2671358062077874
540,Babas Bagel & Salads,amenity,55.6818859,12.5702259,0.22460289034415917
541,,amenity,55.6874838,12.5709182,0.4117685813528589
542,,amenity,55.6874188,12.570822,0.40345186118608184
543,,amenity,55.6873623,12.5711931,0.4026338788569717
544,,amenity,55.6873961,12.571121,0.4051432556370399
545,,amenity,55.6874313,12.5710463,0.40783628512551534
546,,amenity,55.6872527,12.5705816,0.38249258582202683
547,,amenity,55.6871881,12.570481,0.3743657427955966
548,,amenity,55.6870544,12.5707509,0.3628176448630889
549,,amenity,55.687092,12.5706724,0.3659298183133175
550,,amenity,55.6871285,12.5705973,0.36904683380866093
551,,amenity,55.687946,12.5721167,0.48196650159979315
552,,amenity,55.6857015,12.5700626,0.20677452801309643
553,,amenity,55.6856668,12.5702052,0.20457244669732833
554,,amenity,55.6857015,12.5701318,0.20749620165842608
555,Øster Farimagsgade 2,amenity,55.6865043,12.5705058,0.2997138200321362
556,,amenity,55.6880682,12.5692525,0.4681335429518355
557,Kiropraktik i centrum,amenity,55.6843152,12.5707348,0.08963206640910813
558,Coffee Collective Telefonkiosken,amenity,55.6826552,12.5714257,0.1791713202138309
559,Såret amazone,tourism,55.6877415,12.5750503,0.55292480048577
560,Narkissos,tourism,55.6876418,12.5755286,0.5639048801417038
561,Matas,shop,55.6837626,12.5718143,0.14282455750332565
562,,amenity,55.6826894,12.5688916,0.1375070077327014
563,Cafe Vivaldi,amenity,55.6833763,12.5725711,0.1976534563725501
564,Keyser Social,amenity,55.68395,12.571327,0.11208219760493837
565,Riccos Kaffe NHM,amenity,55.687181,12.577181,0.6053528074639263
566,Rørt,amenity,55.6837967,12.5700197,0.030488035217172818
567,Vinum Historia,amenity,55.6839892,12.5676699,0.11911649935797507
568,H.C Ørsted - Elektromagnetismen,historic,55.6804274,12.5710962,0.39508035897558724
569,H.V.S. Gredsted,historic,55.6882903,12.5712213,0.5035624461862727
570,Melo Vinbar,amenity,55.682092,12.573523,0.3185404766853947
571,Amatørcenen Teaterkatten,amenity,55.6856872,12.566809,0.2661271660701301
572,Spillecafé Game Shop,shop,55.67942,12.574546,0.5863817192026952
573,Mirage,amenity,55.6815921,12.5709874,0.26889743436465724
574,OC Depot,shop,55.6836311,12.5698716,0.03309666244929803
575,7th Heaven,amenity,55.6828896,12.5747779,0.34630713446185085
576,Café Rundetårn,amenity,55.681417,12.5758746,0.4823000053916479
577,Kopan Street,amenity,55.684054,12.5698859,0.029616828294549036
578,Hotel Kong Arthur Baren,amenity,55.684718,12.564939,0.3051926493288779
579,Tea Time Bubbble Tea,amenity,55.682127,12.571933,0.2448904888551967
580,Little Brother,amenity,55.684662,12.567635,0.1495454204505409
581,Spejder Sport,shop,55.6847212,12.5693407,0.0960315735681535
582,Taste of Taiwan-R,amenity,55.680232,12.576721,0.6059601881307686
583,Zarah Voigt Design,shop,55.6845315,12.5670227,0.17541419031157687
584,Studio Arhoj,shop,55.6805395,12.5758099,0.5405892598868514
585,Café Vito,amenity,55.679824,12.5763295,0.620009888407111
586,Rødder & Vin,shop,55.6883026,12.5618678,0.6909691980362278
587,Tårnet Kultorvet,amenity,55.6825783,12.5737823,0.30235124834944993
588,,amenity,55.6833148,12.5622737,0.4618746452863872
589,,amenity,55.6868416,12.5623991,0.5586233219924303
590,,amenity,55.6859486,12.5644312,0.3967740478248229
591,"Øre-, næse- og halsklinikken ved Kultorvet",amenity,55.6820753,12.5744196,0.3654694196952908
592,Realdania Kantinen,amenity,55.6795266,12.5644412,0.5803776565644484
593,Børnehuset Nansensgade,amenity,55.6827116,12.5644524,0.3455564677954707
594,,amenity,55.68082,12.5682182,0.34943918695966847
595,,amenity,55.6848651,12.5689093,0.11824270018063013
596,Accord Lagersalg,shop,55.6816095,12.5747776,0.4138202278532893
597,Rokkedyssegård Stade,shop,55.683984,12.569638,0.014134522099410376
598,Papirlageret,shop,55.683099,12.5707399,0.11357875769285433
599,,amenity,55.6821485,12.5666323,0.2651687977057361
600,,amenity,55.6819487,12.5659547,0.31111038348091163
601,,amenity,55.6816657,12.5654276,0.3568501046010447
602,Komplet,amenity,55.6809565,12.5740229,0.42909027461947236
603,Flying Tiger Copenhagen,shop,55.6844271,12.5691513,0.06725175054328125
604,Tea Time Bubble Tea,shop,55.6829451,12.5719492,0.1824421246680384
605,Helsam City,shop,55.6832242,12.5702137,0.0828057949165893
606,Summerbird Chocolaterie,shop,55.6837386,12.569783,0.0204116544387406
607,Norcino,amenity,55.6837947,12.5698523,0.02057481971293095
608,Hallernes Smørrebrød,amenity,55.6839944,12.5693514,0.018959247554166177
609,Omegn og Venner,shop,55.6839402,12.5692019,0.02343801576011807
610,Den Kinesiske Købmand,shop,55.6838771,12.5691942,0.022484392371049586
611,Istanbul,shop,55.6839554,12.5692841,0.01947705265593281
612,Bornholmerbutikken,shop,55.6839178,12.5692275,0.021135005244047537
613,Osten ved Kultorvet,shop,55.6830962,12.5737126,0.2754645321378281
614,Naturbageriet,shop,55.6849762,12.5678355,0.1640115536494858
615,Rumænsk vin og delikatesse,shop,55.6832745,12.576512,0.4427851779062264
616,Lille Mas Burgers,shop,55.6808084,12.5741746,0.4478123293306923
617,Naturpoteket,shop,55.6795082,12.5684352,0.49033180570544227
618,Arla Unika,shop,55.6838593,12.5691636,0.0243951536611164
619,Proteinudsalg,shop,55.6855479,12.5662982,0.27729732831652804
620,HNG,amenity,55.6800218,12.5619028,0.6440039862651072
621,Kiosk 44,shop,55.6855401,12.5672102,0.237455529493005
622,Afrobeauty,shop,55.6853173,12.5677488,0.19730520570429472
623,Chums,amenity,55.6853486,12.5690851,0.16755157033122162
624,Panduro Hobby,shop,55.685021,12.568739,0.13827646054215798
625,Fjeld & Fritid,shop,55.6844906,12.5699241,0.0732947727549028
626,Ns Købmand,shop,55.6839582,12.5685985,0.06078183217225821
627,Noorbohandelen,shop,55.6837044,12.5698581,0.026457211633985914
628,Den Lille Bagebutik,shop,55.6837685,12.5699901,0.029701636417363855
629,Exotic mix,shop,55.6837139,12.5699076,0.028155606791579302
630,VinVeto II,shop,55.6836274,12.5697701,0.03001015839810134
631,ASA Trading,shop,55.6836042,12.5698484,0.034711964907382806
632,Pavillion De Verre,amenity,55.6836454,12.5698768,0.03205650308708248
633,Flying Tiger Copenhagen,shop,55.6826697,12.5735551,0.2849506606116269
634,Nordic Treats,shop,55.6823982,12.5722501,0.23571038384596343
635,Venner,amenity,55.6796659,12.5680199,0.4775386094644435
636,PureGym,leisure,55.6810412,12.576783,0.5530938918533014
637,,amenity,55.686875,12.5676012,0.3566628836000071
638,,amenity,55.686855,12.5676379,0.35378092868682237
639,,amenity,55.68683,12.5676843,0.350175365469494
640,,amenity,55.6799253,12.5761564,0.6043333310135172
641,,amenity,55.6800728,12.5761917,0.5940745597468213
642,,amenity,55.6799354,12.5760566,0.599212504125167
643,,amenity,55.6799558,12.5760744,0.5983226654157318
644,,amenity,55.6797208,12.5759364,0.6118927953550869
645,,amenity,55.6796956,12.5758839,0.6118570004390436
646,,amenity,55.6798989,12.5760957,0.6038616528951403
647,,amenity,55.6796896,12.5756086,0.6012426500354763
648,,amenity,55.680179,12.5752856,0.5465400790196199
649,,amenity,55.6793774,12.5772537,0.6961366496511385
650,,amenity,55.6797264,12.5755759,0.5967704631859878
651,,amenity,55.6799141,12.5760612,0.6011441612376928
652,,amenity,55.6799487,12.5761491,0.6021274622458791
653,,amenity,55.6799054,12.5761358,0.6050563727114506
654,,amenity,55.67996,12.5761145,0.599716144452828
655,,amenity,55.6800164,12.5759818,0.5894174738322107
656,,amenity,55.6800435,12.5760842,0.5916821148622274
657,Solfrugt,shop,55.683856,12.5695828,0.0023288601337109966
658,Seks,amenity,55.681234,12.574478,0.42658448771956864
659,Glean,shop,55.6838594,12.5698338,0.017795458627906886
660,Hygge Chi,amenity,55.6820302,12.572207,0.26405393346155737
661,Honningkagebageriet,shop,55.6840586,12.5694641,0.022035082206992115
662,Jarsbo Is Torvehal 2 Stade B4,amenity,55.6840639,12.5692415,0.02933517591556785
663,Paradis Frugt Colormix Paradise,shop,55.6825044,12.5738683,0.3110525257802062
664,Emmerys,shop,55.681096,12.5760815,0.5137228752094859
665,Wiine,amenity,55.6840689,12.5680688,0.09591823658093296
666,,amenity,55.6865856,12.5644433,0.4414098728605535
667,,amenity,55.6866228,12.5636987,0.47922293184550635
668,,amenity,55.6872456,12.5733899,0.4469921934867969
669,,amenity,55.686375,12.5741408,0.40163822164483326
670,,amenity,55.6863911,12.5737453,0.3854523876854258
671,,amenity,55.6871736,12.5734187,0.4412635211153279
672,,amenity,55.6866339,12.5738319,0.40914731246279323
673,,amenity,55.6870518,12.56328,0.5304031603249397
674,,amenity,55.6866986,12.5641507,0.46344522328706855
675,,amenity,55.6874752,12.5744235,0.5052794977010431
676,,amenity,55.687083,12.5728208,0.41292358786620403
677,,amenity,55.6866811,12.564214,0.4592033626424996
678,,amenity,55.6863275,12.5736926,0.3780289276375909
679,,amenity,55.6867013,12.5745705,0.4463818003038609
680,,amenity,55.6869077,12.5636458,0.5025790340466075
681,,amenity,55.6868389,12.5638276,0.48897232959480985
682,,amenity,55.6867845,12.5736018,0.41283043540798997
683,,amenity,55.6871356,12.5728015,0.41741609325824947
684,,amenity,55.6869735,12.5634874,0.5148788463748781
685,,amenity,55.6870546,12.5728322,0.41054472720711355
686,,amenity,55.6865781,12.5728524,0.3663758757781045
687,,amenity,55.6870075,12.5738727,0.4428856613851316
688,,amenity,55.6865976,12.5637557,0.47467265580255696
689,,amenity,55.686813,12.5638863,0.4843028471050095
690,,amenity,55.6851514,12.5730491,0.26241229635613905
691,,amenity,55.6876888,12.5749255,0.5434424547820339
692,,amenity,55.6866314,12.565204,0.41170382833177505
693,,amenity,55.6871322,12.5734352,0.43800332984162416
694,,amenity,55.6868843,12.5637079,0.4979378191292926
695,,amenity,55.686379,12.5724158,0.33270128845090075
696,,amenity,55.6850733,12.5732782,0.27018073974417167
697,,amenity,55.6867866,12.5639572,0.4790320046903012
698,,amenity,55.6850206,12.5733391,0.27067813169213506
699,,amenity,55.687041,12.5745491,0.4729783572367612
700,,amenity,55.6866091,12.5643821,0.44600636742558347
701,,amenity,55.6870768,12.5632164,0.5352391893141635
702,,amenity,55.6866086,12.5746441,0.442486189177742
703,,amenity,55.68698,12.5659234,0.41496939554630513
704,,amenity,55.6870326,12.5728094,0.40770643474459467
705,,amenity,55.6868592,12.5637691,0.493211489854619
706,,amenity,55.6877411,12.5749807,0.5501620123327463
707,,amenity,55.6857258,12.5728343,0.29236649224087735
708,,amenity,55.6862162,12.5741146,0.3883340478457277
709,,amenity,55.6866994,12.563509,0.49384979827699216
710,,amenity,55.687024,12.5727439,0.4048195558238655
711,,amenity,55.6862584,12.5657301,0.3586918219370555
712,,amenity,55.6868088,12.5745221,0.4528141386147226
713,,amenity,55.685108,12.5730211,0.25832085952212835
714,,amenity,55.6868032,12.5739401,0.4278800122184684
715,,amenity,55.6875481,12.575579,0.5583212999392647
716,,amenity,55.6861808,12.5656816,0.35441427087823557
717,,amenity,55.6872903,12.5748576,0.5066282123273523
718,,amenity,55.6873745,12.5753331,0.5336336992400738
719,,amenity,55.6867279,12.5634449,0.49897868039804993
720,,amenity,55.6872524,12.575484,0.5304018114322845
721,,amenity,55.6869961,12.5634316,0.5191691852560076
722,,amenity,55.6862604,12.5727081,0.33232784549698346
723,,amenity,55.686474,12.5747354,0.43655729892741457
724,,amenity,55.6865376,12.5747008,0.43969124049252467
725,,leisure,55.6865719,12.5754395,0.4773595971297964
726,,leisure,55.6849887,12.5727365,0.23609693598081286
727,,amenity,55.6867974,12.5760436,0.5226982837931321
728,,leisure,55.6869764,12.5754713,0.5084394641050491
729,,amenity,55.6868673,12.5752303,0.4890694036427027
730,,leisure,55.6870055,12.576009,0.535812904422216
731,,amenity,55.6850886,12.5725911,0.23465412288256685
732,,leisure,55.6866954,12.5755975,0.49376414700554705
733,,leisure,55.6866154,12.5753906,0.4780625232003027
734,,leisure,55.6866027,12.5755046,0.4826998885094647
735,,amenity,55.6865904,12.5726569,0.3606999517495315
736,Athena Lemnia,tourism,55.6849814,12.5734837,0.27673346226099016
737,Wedo,amenity,55.6875937,12.5619788,0.631677666580408
738,Cafelitten,amenity,55.6872868,12.5705032,0.38543797419822556
739,Sanku Mini Hot Pot,amenity,55.6806973,12.5730873,0.4171433516165133
740,,shop,55.6830518,12.5728081,0.22406503991860516
741,,tourism,55.6795708,12.5728292,0.5208647263076931
742,,tourism,55.6795158,12.5725582,0.5200536399792101
743,,tourism,55.6794982,12.5724616,0.5197078565350991
744,VINO FINO i Torvehallerne Stade E7,shop,55.6839649,12.5693401,0.01718617592012634
745,Coffee Collective Torvehallerne,amenity,55.6835717,12.5695127,0.032955505641297206
746,,amenity,55.6802129,12.5672129,0.43259574302830184
747,,amenity,55.6831281,12.5637014,0.3770440767970914
748,,leisure,55.6813574,12.5632756,0.4836264560660423
749,,leisure,55.6811295,12.5634642,0.48937937701033546
750,,leisure,55.6810031,12.5634161,0.5005945135506698
751,,leisure,55.6809956,12.5633878,0.5024989988734971
752,,leisure,55.6811,12.5636888,0.4805055492485492
753,,leisure,55.6808412,12.5633478,0.515508911024438
754,,leisure,55.6808737,12.5633448,0.5132950852759248
755,,leisure,55.680825,12.5634385,0.5123942334218577
756,,leisure,55.6808084,12.5634989,0.5107796193747928
757,,leisure,55.6809549,12.5629252,0.5280466709161737
758,,amenity,55.6818967,12.5630466,0.46424740771971956
759,Rosengaardens Vinstue,amenity,55.68224,12.5725521,0.2616119823832712
760,7-Eleven,shop,55.6831459,12.5715426,0.1487766115692653
761,Rajissimo 7,amenity,55.6828714,12.5732142,0.255681526967262
762,Hanzo Nørrebro,amenity,55.6879324,12.5630935,0.6081601017179797
763,Albatross og Venner,shop,55.6836489,12.5698991,0.032679895873281274
764,Moscot,shop,55.681099,12.576581,0.5389859770017917
765,Scandic Nørreport,tourism,55.6838015,12.5717839,0.14062806996065697
766,Cafe Phenix City,amenity,55.679504,12.575813,0.6253840774403551
767,BarrDrew,amenity,55.6850036,12.5677383,0.17035139372818758
768,The Burger Concept,amenity,55.6830809,12.5727232,0.21787149243580695
769,Djøf Møde og Event,amenity,55.6842051,12.5738166,0.27092661876861757
770,,leisure,55.6827916,12.566603,0.22073426368952676
771,,amenity,55.6854508,12.5650112,0.33562654037165673
772,,amenity,55.6852216,12.5656222,0.28952391831066504
773,,amenity,55.6851805,12.5654828,0.294746540006
774,,amenity,55.6850943,12.5658737,0.268665266416741
775,,amenity,55.684788,12.5664019,0.2230635449235461
776,,amenity,55.6845052,12.5669289,0.17960221738784474
777,,amenity,55.6843952,12.5671082,0.16453879799620907
778,,amenity,55.6840597,12.5676356,0.12239017168502342
779,,amenity,55.6840784,12.5675805,0.12617565444475243
780,,amenity,55.6836604,12.5686488,0.06124148274588966
781,,amenity,55.683676,12.5686125,0.06275425552509405
782,,amenity,55.683734,12.5687465,0.05273499633554391
783,,amenity,55.6837538,12.5686981,0.05511865538756736
784,,amenity,55.6837154,12.5687947,0.050485854466653206
785,,amenity,55.6836415,12.5689723,0.044223454385987446
786,,amenity,55.6836597,12.568922,0.0458099170350656
787,,amenity,55.6833202,12.5695135,0.060913603683467196
788,,amenity,55.6833034,12.569556,0.06273859898989752
789,,amenity,55.6834093,12.569561,0.05095111278276985
790,,amenity,55.6833933,12.5696037,0.052832069549658627
791,,amenity,55.6833753,12.5696483,0.055072542243841255
792,,amenity,55.6830582,12.570496,0.10788244750140333
793,,amenity,55.6829588,12.5704471,0.1157489586904332
794,N'Bro shop,shop,55.6871951,12.562138,0.5955856704414322
795,,amenity,55.6841664,12.5676508,0.12410056929386125
796,,amenity,55.6834821,12.5693743,0.04426356359014397
797,,amenity,55.6830477,12.5705159,0.10954839619203194
798,,amenity,55.6855541,12.5650272,0.34096885872709093
799,,amenity,55.6834655,12.5694181,0.04546774751628513
800,,amenity,55.6850172,12.5659888,0.2580926038815854
801,,amenity,55.6841693,12.5676212,0.12598085837673711
802,,amenity,55.6826622,12.5673552,0.19253739759433888
803,,amenity,55.6826673,12.5673432,0.19268563451649617
804,,amenity,55.6822827,12.5684357,0.18982333085973346
805,,amenity,55.683112,12.569598,0.08409913204275879
806,,amenity,55.6873939,12.5766287,0.5936069768081158
807,,amenity,55.6834834,12.5688998,0.059177140809331195
808,,amenity,55.6833974,12.5691437,0.0582186338474473
809,,amenity,55.6834905,12.5688806,0.05945992681648913
810,,amenity,55.683412,12.5690803,0.058672468358036016
811,,amenity,55.683404,12.5690968,0.05893272352677779
812,,amenity,55.6837008,12.5683785,0.07604708565357139
813,,amenity,55.6840691,12.5676062,0.124396336712336
814,,amenity,55.6857105,12.5651781,0.3432096533689835
815,,amenity,55.6852342,12.5655999,0.2914523654790692
816,,amenity,55.6837199,12.5688949,0.04440798575091202
817,,amenity,55.6836846,12.5689544,0.04267508159998745
818,,amenity,55.6834858,12.5694595,0.042820442106572626
819,,amenity,55.6834623,12.5695804,0.04508400193868592
820,,amenity,55.6833278,12.5691525,0.06504999417521226
821,,tourism,55.6835282,12.5687763,0.061626444607733456
822,,amenity,55.6837775,12.5683727,0.0747942976624146
823,,amenity,55.6838034,12.5683103,0.07837358292075691
824,,amenity,55.6855491,12.5650173,0.3411828300227586
825,25Hours,tourism,55.6816539,12.5771263,0.5364275705257686
826,,amenity,55.684264,12.5692932,0.047095888603624035
827,,amenity,55.6843423,12.5693953,0.05382990842084638
828,,amenity,55.6843633,12.5694202,0.05587811662449134
829,Dinesen,shop,55.6854005,12.5649083,0.3382897890047902
830,Den Grønne Cykel,shop,55.6842897,12.572681,0.2024164354936602
831,ITALGASTRO,amenity,55.6841983,12.572532,0.19109079377409255
832,ria,amenity,55.6839168,12.5721075,0.16088996845781148
833,Pizza Party,amenity,55.6832707,12.5739731,0.28595543064215356
834,,shop,55.6831626,12.5738051,0.27883050440776913
835,Exuviance Wellness,shop,55.6813831,12.5695793,0.27654212303278486
836,,amenity,55.6823916,12.5768093,0.4851993219969645
837,Limousine,shop,55.6823349,12.5767011,0.4810031577763618
838,,amenity,55.683068,12.5721271,0.18483705514949653
839,H Table,amenity,55.6804376,12.5628098,0.5706152866392185
840,The MidWestern Diner,amenity,55.6826026,12.5735729,0.2894988436876053
841,UCplus Danish Language School,amenity,55.6798134,12.5627144,0.6234001810515355
842,YouSee,shop,55.6830093,12.5729037,0.23148743230345187
843,,amenity,55.6831337,12.572131,0.18164941366424212
844,,amenity,55.683151,12.5721539,0.18208600514845788
845,,amenity,55.6844388,12.5737998,0.2747204697194399
846,,amenity,55.6844397,12.5738374,0.27704472071629893
847,,amenity,55.6843818,12.5737751,0.27180061763142666
848,,amenity,55.6839005,12.5729919,0.21645610310136448
849,,amenity,55.6839495,12.5730485,0.22017598051348436
850,,amenity,55.6838968,12.5730295,0.21881419013440995
851,,amenity,55.686279,12.5616219,0.5664531515948564
852,,amenity,55.6845906,12.5696219,0.080696547402995
853,,amenity,55.6852919,12.5704683,0.16881555035902582
854,,amenity,55.6853018,12.5703574,0.16761123211098827
855,,amenity,55.6881684,12.563866,0.5976826640228603
856,,amenity,55.6883356,12.5640894,0.6046066573520694
857,Apēron Apartment Hotel,tourism,55.6823105,12.5754536,0.40972211562202787
858,Faraos Cigarer Live Rollespil og Udklædning,shop,55.6795248,12.5742828,0.5677110922046993
859,Kitchen Living Dining,shop,55.6800065,12.5766525,0.6198966348348118
860,Hanegal,amenity,55.681246,12.5760635,0.5029476491681275
861,Moderne pige af Gerhard Henning,tourism,55.6818876,12.5774679,0.5445619511357354
862,,leisure,55.6855775,12.5701352,0.19396165385270772
863,,leisure,55.685613,12.5700145,0.19657597781398592
864,,amenity,55.6874348,12.5665034,0.4410735639442904
865,Bombay bistro,amenity,55.6812988,12.5724902,0.34048386870546393
866,Indian Bites,shop,55.682217,12.574874,0.3818975549517914
867,Luke's,amenity,55.679395,12.5748785,0.6001568737662444
868,Level six Bar,amenity,55.6837853,12.571729,0.13728712372327873
869,Level six Restaurant,amenity,55.683798,12.5717122,0.13614571223602018
870,Surf Shack,amenity,55.683762,12.5698433,0.02177121817959181
871,Impronta Denmark,amenity,55.6824213,12.5768534,0.48670680895444374
872,Mosaik,amenity,55.6818701,12.5720697,0.2729860443985515
873,Emmylou Café,amenity,55.6813002,12.574665,0.43027510456780743
874,Coffee kiosk,amenity,55.6872165,12.5732108,0.4382488825186077
875,Nørregade Cykler,shop,55.6809963,12.5712948,0.3378968907015038
876,Delidrop FoodLab v / Torvehallerne KBH,shop,55.6841101,12.5693075,0.03111490197233588
877,PremiumBottles,shop,55.6848442,12.572072,0.192302754893958
878,Bebo,amenity,55.6820242,12.57196,0.2550459428342025
879,Restaurant China,amenity,55.6818552,12.574564,0.3867694784604416
880,365discount,shop,55.682905,12.5718694,0.18092093429521372
881,Sandø & co,shop,55.6815783,12.5698555,0.25552163938697653
882,The Sandwich Company,amenity,55.6856587,12.5660067,0.29917023062168696
883,Hybrid Bar & Coffee,amenity,55.6851003,12.5660209,0.2610867990755256
884,,amenity,55.6829015,12.571573,0.16651205831214483
885,Olfert Fischer,historic,55.68369,12.5751372,0.35191798789974
886,,amenity,55.6802803,12.5677151,0.4156856061441138
887,,amenity,55.6806574,12.5681308,0.3683341225132716
888,,amenity,55.6801977,12.5644708,0.5186654023599269
889,Pavilion de Verre,amenity,55.6838911,12.5698985,0.022011077019428484
890,Indian Swaad,amenity,55.6824011,12.5724003,0.2423861576592775
891,,leisure,55.6870185,12.5732186,0.41991927982549115
892,Ni'mat Spa,shop,55.6849382,12.5657138,0.26923503990614217
893,,amenity,55.685879,12.5767798,0.5068671641026086
894,,amenity,55.6858157,12.5766156,0.4944911826176756
895,,amenity,55.6858451,12.5766926,0.500280077492419
896,,amenity,55.6857916,12.5765483,0.4895104079957014
897,Rosenborg Slot Tickets,shop,55.6859872,12.5771166,0.5311959299538059
898,,amenity,55.6861926,12.5735715,0.36192841896938827
899,,amenity,55.685101,12.5739374,0.30821325093284235
900,,amenity,55.6863167,12.5736788,0.3765594935496745
901,,amenity,55.6862048,12.575782,0.4704760699263962
902,,amenity,55.6850819,12.5738557,0.30266552039934613
903,,amenity,55.6847309,12.5734774,0.26503286453213537
904,,amenity,55.6863404,12.5759822,0.48934986480203685
905,,amenity,55.6871622,12.5773027,0.6101782851024754
906,,amenity,55.6871798,12.5773192,0.6121863972471294
907,,amenity,55.6864003,12.5737573,0.3867157910681876
908,,amenity,55.6873063,12.5773208,0.6208524601921855
909,,amenity,55.6850924,12.5739201,0.306812598017912
910,,amenity,55.6849259,12.5738113,0.2927539762111991
911,,amenity,55.6865282,12.5762616,0.515695846263616
912,,amenity,55.6860395,12.5755146,0.4463247476486919
913,,amenity,55.6849388,12.5738298,0.2943986944638311
914,,amenity,55.6857819,12.5751229,0.41021753610152867
915,,amenity,55.6854555,12.5746196,0.3645776966485188
916,,amenity,55.6871299,12.5772509,0.6054134625177328
917,,amenity,55.6854462,12.5746037,0.36320111944283595
918,,amenity,55.6857898,12.5751422,0.411711781572387
919,,amenity,55.6860258,12.5755019,0.44482762832599454
920,,amenity,55.6871234,12.5772419,0.6045264413112035
921,,amenity,55.6862149,12.5757982,0.4719471191663556
922,,amenity,55.6872382,12.5772125,0.6108170425695577
923,Stilleben,shop,55.6840342,12.571083,0.09813563022143303
924,Samsøe Samsøe,shop,55.6810352,12.5768196,0.5553679607291853
925,Boii Studios,shop,55.687669,12.5617781,0.6467055515611108
926,Slotsbutik,shop,55.6861609,12.5765407,0.5084389685539658
927,,amenity,55.685924,12.5769904,0.5209656525898649
928,,amenity,55.683606,12.5695378,0.02905980638781863
929,,amenity,55.6865866,12.5725997,0.35840671661963136
930,,amenity,55.6881579,12.5638568,0.5970933073124048
931,,amenity,55.6881745,12.5638799,0.5977047944029373
932,,amenity,55.6883445,12.5641021,0.6049693934323271
933,,amenity,55.6883228,12.5640773,0.6038681167907026
934,Salonen,amenity,55.6820468,12.5720332,0.25581017984704035
935,Foto/C,shop,55.67993,12.567713,0.45331428701532345
936,Hija de Sanchez Torvehallerne Hall 1,amenity,55.6839584,12.5691206,0.028937648773613253
937,,amenity,55.6878843,12.5634933,0.5875747600948726
938,,amenity,55.6878958,12.5635067,0.5880046660217887
939,,amenity,55.6879083,12.5635253,0.588312600483368
940,Mochitimecph,amenity,55.6841815,12.5695744,0.03505671467606842
941,Det Vide Hus,amenity,55.6841802,12.5746572,0.3230604552248881
942,Bar Godt,amenity,55.6799972,12.57512,0.5552759432559123
943,Bobe,amenity,55.6796597,12.5760225,0.6205802126345968
944,,amenity,55.6825261,12.5661743,0.25962322042723307
945,,amenity,55.6827135,12.5663471,0.23897818307556049
946,,amenity,55.6811759,12.5650476,0.4123314586886211
947,,amenity,55.6812152,12.5650619,0.40854082578057593
948,,amenity,55.6808142,12.5651371,0.4388757381950367
949,,amenity,55.68136,12.56514,0.39356785415203094
950,,amenity,55.6811867,12.5650523,0.4112550635771447
951,,amenity,55.6826719,12.5667664,0.21996776537694654
952,,amenity,55.6800224,12.5640968,0.5485724035498609
953,,amenity,55.6826451,12.5668563,0.21734662605701158
954,,amenity,55.68123,12.5650664,0.40715544702134576
955,,amenity,55.6799883,12.5641131,0.5509026626164312
956,,amenity,55.682703,12.566287,0.24279688068223929
957,,amenity,55.6816209,12.5653938,0.36182761338511865
958,,amenity,55.6812005,12.5650557,0.4099940267236968
959,,amenity,55.6813364,12.56512,0.39631942978769513
960,,amenity,55.6808017,12.5651582,0.43911795930306624
961,,amenity,55.6799614,12.56413,0.552596781331726
962,,amenity,55.6808257,12.5651227,0.43845985179003033
963,,amenity,55.6814,12.5651608,0.3894933133478567
964,,amenity,55.6816097,12.5653831,0.3631761427380705
965,,amenity,55.6815246,12.5652818,0.3743406180137723
966,,amenity,55.6799452,12.5641427,0.5535257964296036
967,,amenity,55.6826543,12.5668314,0.21793437353260356
968,,amenity,55.6827126,12.5663179,0.2405827526052386
969,,amenity,55.6815352,12.5652965,0.37285511726018317
970,,tourism,55.6809402,12.5650567,0.4314009489478563
971,,amenity,55.6826665,12.5668083,0.21824242354457368
972,,amenity,55.6813757,12.5651446,0.3921255359792792
973,,amenity,55.6815529,12.5653167,0.3705713207781248
974,,amenity,55.6816471,12.5654189,0.3586719066817526
975,,amenity,55.6812465,12.5650704,0.405657924865593
976,,amenity,55.685841,12.5725116,0.28806310133614665
977,,amenity,55.6818029,12.5690331,0.2320970584387356
978,,amenity,55.6818301,12.5690231,0.22918944042078934
979,,amenity,55.6818031,12.5690714,0.23174897089355748
980,,amenity,55.6820966,12.5686369,0.2053175894572032
981,,amenity,55.682887,12.5663472,0.22917211931977863
982,,amenity,55.6829188,12.5664568,0.2214239142665168
983,,amenity,55.6829037,12.5664587,0.22212564416602085
984,,amenity,55.6828953,12.5664083,0.22535461357153766
985,,leisure,55.6825043,12.5666755,0.23608323008187704
986,,amenity,55.681829,12.5690616,0.22897232996780212
987,,amenity,55.682136,12.5679408,0.2177132872062203
988,,amenity,55.6821396,12.5679335,0.21757296364921871
989,Center for almen medicin,amenity,55.6876889,12.5679943,0.4366490314621057
990,,amenity,55.6881898,12.5675019,0.4982559237705492
991,,amenity,55.6881704,12.5674776,0.4965690992060728
992,,amenity,55.6868223,12.5709638,0.3408277531749138
993,,amenity,55.6869257,12.5706044,0.3469380241901587
994,,amenity,55.6868293,12.5623137,0.5621535292940151
995,Accord Lagersalg,shop,55.6815364,12.5749113,0.4254469354535429
996,,amenity,55.6849211,12.567986,0.15319442310400755
997,,amenity,55.684934,12.5686056,0.13286357437737992
998,,amenity,55.684413,12.5678017,0.1257241435985124
999,Beauty Tan,shop,55.6844989,12.5680305,0.1187461011350711
1000,,amenity,55.6865594,12.5618832,0.567878209818729
1001,Guitar hunter,shop,55.6852866,12.5683895,0.17413653623448705
1002,Maggis,amenity,55.683667,12.5697225,0.024727180897123963
1003,Il Merre Italian Pasta,amenity,55.6838189,12.5700782,0.03357692432693436
1004,,amenity,55.6840622,12.5752101,0.3566137522170992
1005,,amenity,55.6840004,12.5754403,0.37072840071223034
1006,V'italian,amenity,55.6797394,12.5761599,0.6196746942595406
1007,,amenity,55.6835831,12.569603,0.03176472848197304
1008,,amenity,55.6816614,12.572326,0.301265413779875
1009,Bertel Thorvaldsen,tourism,55.680376,12.565179,0.47612979986310294
1010,,amenity,55.6872055,12.5734059,0.44379061294127703
1011,,amenity,55.6860344,12.5692305,0.24216258046567957
1012,,amenity,55.6859935,12.5691699,0.23797894396891378
1013,,amenity,55.6869723,12.5706991,0.35320155241427365
1014,Synoptik,shop,55.6839905,12.5712061,0.10500054950789743
1015,Normal - København Nørreport St,shop,55.6836545,12.5711331,0.1022749862218935
1016,,amenity,55.6839502,12.5750949,0.34882785225265656
1017,,amenity,55.6838898,12.5766675,0.4476303372121336
1018,,amenity,55.6872465,12.5628197,0.5664347271798814
1019,,amenity,55.6872335,12.5628609,0.5635366435612038
1020,,amenity,55.6872211,12.5628983,0.560862085960063
1021,,amenity,55.6869872,12.5627189,0.5525997753577956
1022,,amenity,55.6870143,12.5626484,0.5579451350801066
1023,,amenity,55.6870391,12.5625919,0.5624446126062354
1024,,amenity,55.6828403,12.5618287,0.4990259887386411
1025,,amenity,55.6845731,12.5634447,0.3920669269902654
1026,,amenity,55.6861542,12.5646869,0.3980745407517976
1027,,amenity,55.685648,12.5644528,0.3770461612711843
1028,,amenity,55.6856198,12.5644292,0.3766733618354972
1029,,amenity,55.6851886,12.5640264,0.37738220722347887
1030,,amenity,55.6850313,12.5638843,0.37929193886545165
1031,,amenity,55.6841466,12.5630486,0.4102030691475054
1032,,amenity,55.6837588,12.5626885,0.4318398264949489
1033,,amenity,55.6830628,12.5621106,0.47651223187299324
1034,Danmission Genbrug,shop,55.6821878,12.5731169,0.2919842282883328
1035,,amenity,55.6804839,12.5645975,0.4888392619825769
1036,,amenity,55.6857654,12.5764717,0.4839019413054968
1037,,amenity,55.6820615,12.5676811,0.23289747652030424
1038,,amenity,55.6816163,12.5687336,0.2557963460700692
1039,,amenity,55.6816478,12.5687727,0.2518721397519102
1040,,amenity,55.6815901,12.5686992,0.25909338153476563
1041,,amenity,55.6818797,12.5690139,0.22381357293619106
1042,,amenity,55.6800554,12.563569,0.5671726647679267
1043,,amenity,55.6806718,12.5651117,0.4522502850603513
1044,,amenity,55.6820701,12.5676188,0.23408237566261508
1045,,amenity,55.6839278,12.57309,0.22269753728128755
1046,,amenity,55.6839156,12.5730549,0.22045318911056352
1047,,amenity,55.6873514,12.5708106,0.39595528083640086
1048,,amenity,55.6859395,12.5689472,0.2338616867566684
1049,,amenity,55.6859896,12.568804,0.24096098324314097
1050,,amenity,55.6860351,12.5686881,0.24742810969111562
1051,Faraos Cigarer - Film og Merchandise,shop,55.6803479,12.5753018,0.5332476786834887
1052,Ringridningssøjlerne,tourism,55.6840844,12.5774031,0.4944851877474552
1053,Garderstatuen,tourism,55.6849432,12.575429,0.38864987891215025
1054,Kong Frederik III,tourism,55.6852862,12.5768035,0.4827636184397801
1055,Wild Kiwi Pies Byen,amenity,55.6858555,12.5664314,0.2958496504004189
1056,,amenity,55.6871404,12.5622704,0.5852773413462761
1057,,amenity,55.6871217,12.5622454,0.5852171400322944
1058,,amenity,55.6870797,12.5623922,0.5750751096214112
1059,,amenity,55.6872694,12.5769659,0.6008401330339236
1060,,amenity,55.6859346,12.5748254,0.4037954456468622
1061,,amenity,55.6872959,12.5768979,0.5994010650853321
1062,,amenity,55.6873333,12.5768267,0.5986312221080126
1063,,amenity,55.6873566,12.5767708,0.5976308789165026
1064,,amenity,55.6813677,12.5761086,0.49755819682865576
1065,,amenity,55.6813282,12.5762084,0.5052220750198134
1066,,amenity,55.6796926,12.5721226,0.4920939389211412
1067,,amenity,55.679704,12.5721684,0.49185223855456284
1068,,amenity,55.6797178,12.5722354,0.4918355912753451
1069,,amenity,55.6797291,12.5722921,0.49189293350730207
1070,,amenity,55.679746,12.5723669,0.49180605891145174
1071,,amenity,55.6797602,12.5724192,0.49152946136810494
1072,,amenity,55.6798269,12.5727415,0.49253612338590186
1073,,amenity,55.6798422,12.5727996,0.4924861050306256
1074,,amenity,55.6798571,12.5728723,0.49289802149184564
1075,,amenity,55.6798701,12.5729208,0.49289172772089196
1076,,amenity,55.679883,12.5729907,0.49350726962262487
1077,,amenity,55.6798923,12.573039,0.4939189289038761
1078,,amenity,55.6828938,12.5664027,0.22574379789936053
1079,DL Fried Chicken,amenity,55.6828391,12.573276,0.2607482561775977
1080,Social Brew Kultorvet,amenity,55.6822485,12.5737167,0.3179961884353142
1081,,amenity,55.6830319,12.5733964,0.2591209667710995
1082,Souvenir,shop,55.6817821,12.5746142,0.3940864283145513
1083,Salumeria Torvehallerne,amenity,55.6839744,12.569082,0.03184768167757469
1084,Oliviers & Co TorvehallerneKBH Torvehallerne,shop,55.684128,12.5692733,0.033920674286195066
1085,Deli del Toro Torvehallerne,shop,55.6840903,12.5692904,0.029795132310113194
1086,Paradis Nørreport,amenity,55.6840534,12.5700553,0.037902140053477106
1087,Riviera,amenity,55.683595,12.5654234,0.2614029115353082
1088,Kazuki Ramen & Sushi,amenity,55.6831462,12.5731278,0.23885525173903613
1089,ZaRa Etiopisk Restaurant,amenity,55.6818622,12.572059,0.273313807223793
1090,,tourism,55.6860086,12.5748601,0.41032263791579
1091,,amenity,55.6850194,12.5733329,0.27027146877333513
1092,,amenity,55.6865416,12.5746979,0.43985825572246184
1093,,tourism,55.6850464,12.5733338,0.27176101097725897
1094,,amenity,55.6859415,12.5748245,0.4041874305861809
1095,,amenity,55.6864787,12.5747317,0.43673171859872423
1096,,tourism,55.6851767,12.573754,0.3019107591997848
1097,,amenity,55.6866118,12.5746409,0.44258642100819173
1098,,tourism,55.6851873,12.5737416,0.3018011184759633
1099,,amenity,55.6850866,12.5732721,0.27058795015676607
1100,,amenity,55.6850394,12.5733018,0.26962237855648397
1101,,amenity,55.6872907,12.5758197,0.5484188415838155
1102,Breto,amenity,55.6817616,12.57581,0.4581898996306608
1103,CAPI BARA,amenity,55.6816676,12.5750169,0.4220914837668386
1104,Restaurant Abigail,amenity,55.6817292,12.5712815,0.2617093357919569
1105,,amenity,55.680647,12.5757553,0.5299238251693804
1106,,amenity,55.6802555,12.5618463,0.629739359112413
1107,,amenity,55.6805538,12.5756295,0.5312750540648076
1108,,amenity,55.6806159,12.57572,0.5306465267880071
1109,,amenity,55.6805886,12.5756736,0.5306022236132556
1110,Søernes Kiosk,shop,55.6855574,12.5671337,0.24196419816543777
1111,SuperBrugsen Frederiksborggade,shop,55.6848056,12.5690761,0.10869975745118622
1112,SuperBrugsen Frederiksborggade Slagter,shop,55.6847961,12.5691183,0.1069769734035679
1113,,amenity,55.681304,12.5667636,0.3349148335631787
1114,,shop,55.684922,12.5678819,0.15755710915456916
1115,,amenity,55.6798949,12.5650442,0.5253020295514853
1116,,amenity,55.6797196,12.566119,0.5097259410798507
1117,,amenity,55.6798554,12.5650616,0.5284239236266431
1118,,amenity,55.6798338,12.5650865,0.5296258636935485
1119,,amenity,55.6807999,12.5665044,0.3915758440000662
1120,,amenity,55.6812812,12.5675145,0.3151019816581986
1121,Asmara Hairsalon,shop,55.6851124,12.5674932,0.18969980102476194
1122,,amenity,55.6807872,12.5665128,0.3925519626300471
1123,Hvilende Hermes,tourism,55.680764,12.5663562,0.39967180818776127
1124,,amenity,55.6813033,12.5667891,0.33414438762811316
1125,,amenity,55.6813939,12.5673396,0.3084837688859372
1126,,amenity,55.6872126,12.5715472,0.39308494185812654
1127,,tourism,55.6806835,12.5651089,0.4513353830353833
1128,,amenity,55.6797407,12.5661613,0.5064728024539872
1129,Pasteel,shop,55.6851736,12.5673133,0.2024346373685293
1130,,amenity,55.6812745,12.5665311,0.34553721981714874
1131,,amenity,55.6798733,12.5650623,0.5267169451973187
1132,,amenity,55.6801938,12.5667392,0.44556427856381314
1133,,amenity,55.6805763,12.5666385,0.4096228413617502
1134,,amenity,55.6801082,12.5667297,0.4545602740225064
1135,,amenity,55.6813011,12.5666152,0.34016636499728026
1136,,amenity,55.6813084,12.5668536,0.3315648737878436
1137,,tourism,55.6800738,12.5642333,0.5387457302203011
1138,,amenity,55.6808125,12.5665018,0.39043343830148314
1139,,amenity,55.6869609,12.5706818,0.3517376089593417
1140,,amenity,55.6811147,12.5663631,0.36621000854848007
1141,,amenity,55.6800935,12.5667265,0.45614583612241755
1142,,shop,55.6848983,12.5678872,0.15537497752673665
1143,,amenity,55.6812939,12.5665901,0.3416979244307671
1144,June Salon,shop,55.6852321,12.567964,0.18185103660921084
1145,,amenity,55.6801509,12.566733,0.4501055780651575
1146,,amenity,55.6804302,12.5666446,0.42406811472493766
1147,,amenity,55.6813079,12.5668147,0.3328714456338917
1148,Loberen,shop,55.6853591,12.5684745,0.17940919295939206
1149,,shop,55.6850546,12.5676299,0.17913831748550987
1150,,amenity,55.6812846,12.5665659,0.34339653453513586
1151,,amenity,55.682539,12.568044,0.1756297430655819
1152,,amenity,55.6810647,12.5663625,0.3709009274165953
1153,,amenity,55.6796861,12.565395,0.5338712228744207
1154,,amenity,55.6812736,12.5676252,0.3131156718246287
1155,,amenity,55.6823499,12.5680028,0.19496792806246332
1156,Reo Salon,shop,55.6849955,12.5677835,0.16778507011975563
1157,,amenity,55.6870541,12.5706245,0.3612150118731876
1158,,amenity,55.6810807,12.5663663,0.36927400828547574
1159,,amenity,55.6812664,12.5665018,0.3473053950407892
1160,,tourism,55.6818912,12.5689566,0.2231237934990466
1161,,amenity,55.6796717,12.5654289,0.5342313346161601
1162,Fløjtespillende satyrdreng,tourism,55.6796064,12.5651443,0.5494113443524947
1163,,amenity,55.6801692,12.5667373,0.44812660395927495
1164,,amenity,55.681311,12.5668988,0.3298690603594122
1165,,shop,55.6848113,12.5668297,0.2008964104297304
1166,,amenity,55.6797596,12.5651313,0.5351784193579225
1167,,amenity,55.6801288,12.5667326,0.45237814446242536
1168,,amenity,55.6872952,12.571661,0.40410400678470787
1169,Rude,shop,55.6846619,12.5686,0.10683701098200238
1170,Fjora,amenity,55.6806944,12.5715842,0.37565135207064076
1171,PÆRE,amenity,55.6807132,12.5717706,0.3778572195479181
1172,Frankies Pizza Torvehallerne,amenity,55.6833415,12.5700511,0.06641184803410366
1173,Caféen4,amenity,55.6869468,12.5619114,0.5903348255167027
1174,,amenity,55.6879327,12.5631577,0.6054956189917271
1175,Restaurant Nepali Bhancha,amenity,55.681724,12.5632289,0.4637663088654638
1176,Lamfuz Kitchen,amenity,55.6814192,12.564007,0.44259495566070944
1177,Epicurus II,amenity,55.6838504,12.5744021,0.3051326146257471
1178,Entremasas,shop,55.6824107,12.5768343,0.48596563877845556
1179,Basic & More - Købmagergade København,shop,55.6818023,12.5748842,0.406658804721899
1180,,amenity,55.6802035,12.5671945,0.4339741161715393
1181,,amenity,55.6801903,12.5671773,0.4357252534865187
1182,Vinho,shop,55.6831522,12.570439,0.09721239874265236
1183,,amenity,55.6824408,12.5770536,0.4979120870289418
1184,Jesper Gøtz,amenity,55.6830392,12.576556,0.45014795996421775
1185,Gelateria Est. 1946,amenity,55.6814394,12.5749928,0.43613030123638147
1186,Starbucks Fiolstræde,amenity,55.6809046,12.5729797,0.39406391257608
1187,Lykke's Lykke,shop,55.6837241,12.5662221,0.21000716585083518
1188,Timequest,leisure,55.6834268,12.5765554,0.4432908323077637
1189,JenkiTe,shop,55.6840635,12.5681342,0.09177901692195435
1190,HIAN,amenity,55.6843915,12.5701588,0.06979983778541542
1191,Oasis Vinbar,amenity,55.6818572,12.570916,0.23965630982381658
1192,A R C H Copenhagen,amenity,55.6815738,12.5709844,0.27075443264566446
1193,Dante Vine,shop,55.6829831,12.5744353,0.32259218524682637
1194,Truffle and Caviar Shop,shop,55.6828392,12.565713,0.26717130539247536
1195,Baryl - Indre By,amenity,55.6835951,12.5636051,0.3752398112565415
1196,Stjernen,amenity,55.6819301,12.563461,0.439609559021973
1197,Restaurant Udtryk,amenity,55.6795846,12.5686668,0.4800090887987316
1198,Co poke,amenity,55.6814792,12.572622,0.3286048619686737
1199,Champagnekælderen,amenity,55.684375,12.5638047,0.3658588485908859
1200,No deux bistro,amenity,55.6802691,12.5632132,0.5651569123466759
1201,Grød,amenity,55.6836983,12.569974,0.03255204429082268
1202,"Bygning 1, 2, 4, 5, 7, 8, 10, 12, 15, 18",amenity,55.687630982976465,12.570067918139845,0.42033669678353375
1203,N. Zahles Gymnasieskole,amenity,55.682329160817204,12.569429129238411,0.17137791926343732
1204,Zahles Seminarium,amenity,55.68277338676538,12.569619883266611,0.12182408592668519
1205,,amenity,55.681925928233206,12.571583764582309,0.2510893227272574
1206,,leisure,55.683197345842196,12.569203222197531,0.077692575825471
1207,,leisure,55.6827793643716,12.575632013530608,0.40120251513576005
1208,Gråbrødretorv,tourism,55.67986979132151,12.575918378730458,0.5987182204040419
1209,Ørstedsparken,leisure,55.68112376395072,12.56641797497296,0.36348285119724233
1210,Botanisk Have,leisure,55.68687342236301,12.573929782329644,0.4334700220918312
1211,Vor Frue Kirke,amenity,55.67938702818612,12.57273719374398,0.5375299292704927
1212,Hovedbiblioteket,amenity,55.68076655531899,12.573746154643494,0.43448909985922796
1213,Botanisk Museum,tourism,55.68514745124747,12.57277399704592,0.24782998794094915
1214,Rosenborg Slot,tourism,55.6856908315797,12.577436418533868,0.5359392337179126
1215,,amenity,55.68040807815583,12.572151699125255,0.41839501820886754
1216,Københavns Universitet,amenity,55.68018811083103,12.572308881564254,0.44480207141537453
1217,Synagogen,amenity,55.68113165093233,12.573538448823715,0.3945197815321197
1218,Sankt Petri Kirke,amenity,55.680007352044484,12.570810534511597,0.4369477171244061
1219,,tourism,55.6799597613232,12.572390071880031,0.4702333640794789
1220,Københavns Universitetsbibliotek Fiolstræde,amenity,55.68033541518118,12.57290698858492,0.4462641539707033
1221,Kommunitetsbygningen,amenity,55.68003119723741,12.571614584652625,0.4463409464823556
1222,,leisure,55.679568527078374,12.568981651359984,0.4799029899885198
1223,Østervold,amenity,55.68686712741663,12.575949160878608,0.5229943627520887
1224,,leisure,55.68067570597816,12.575533574905004,0.5175386230612917
1225,Bygning 03,amenity,55.68627146256273,12.57078440989666,0.27872546525476094
1226,Sankt Andreas Kirke,amenity,55.68609961352002,12.56886760307518,0.2522729044371556
1227,Københavns Universitet - Center for Sundhed og Samfund,amenity,55.68763961867267,12.569779168595883,0.4202844681654301
1228,Den Tyske Reformerte Kirke,amenity,55.68379027364907,12.575147245408058,0.3521012116829066
1229,Botanisk Haves Butik,shop,55.684893242147524,12.57321942772938,0.25747798742591815
1230,,leisure,55.68059854939912,12.564688099321335,0.4753858120466528
1231,Københavns Indre Mission,amenity,55.68421807988159,12.568645160309151,0.06911342364107047
1232,Arbejdermuseet,tourism,55.68479503029589,12.57033097266447,0.11438400624576077
1233,Trinitatis Kirke,amenity,55.681584499829995,12.576150889060743,0.48673890054491475
1234,Dannerhuset,amenity,55.681125746368146,12.56154669294253,0.5887807732201694
1235,Torvehallerne,amenity,55.68387910605614,12.569566233583723,0.0016556042649098347
1236,Kulturhuset Indre By,amenity,55.6834672333657,12.563924668390374,0.35670323197820675
1237,,amenity,55.682036612526666,12.563027951873668,0.45814307972218193
1238,,leisure,55.68653527564075,12.565169016135183,0.40525915457622075
1239,,leisure,55.68601072470709,12.564604190719598,0.39216517475141094
1240,,leisure,55.68733638196319,12.562965176877173,0.5664045397170284
1241,,leisure,55.68693547293907,12.562490927294212,0.5602931383091216
1242,Flindt & Ørsted Café,amenity,55.682488635602624,12.566220931707447,0.25967184513311964
1243,1 Hotel Copenhagen,tourism,55.680834131143065,12.572021528325264,0.3716970584804011
1244,Østre Anlæg,leisure,55.690212639547234,12.580639395189221,0.9927376019909687
1245,Kongens Have,leisure,55.68518843485132,12.579646506766702,0.6518187306351215
1246,Luthersk Mission Nansensgade,amenity,55.68562156835397,12.56797416835574,0.21909889481734357
1247,,amenity,55.680729709354615,12.562185641198116,0.5802275281926556
1248,,tourism,55.681321944041684,12.57317648067093,0.36371355614141776
1249,Det Grønlandske Hus,amenity,55.68053771813708,12.576830343768822,0.5891066266731466
1250,,amenity,55.67929328518011,12.56642004812667,0.5459742546990934
1251,St. Petri Skole,amenity,55.679715653758095,12.569521266876139,0.4621871198669528
1252,Københavns Universitet,amenity,55.679335391878915,12.570981589794163,0.5124808737599995
1253,Helligåndskirkens børnehaves legeplads,leisure,55.6793518247331,12.57685346974734,0.6809535909125671
1254,,amenity,55.68420928938025,12.564458721125998,0.32258150715445266
1255,,amenity,55.68147135841904,12.565004367691117,0.39107002624638887
1256,,amenity,55.68228446670807,12.565631183651767,0.30305272102711395
1257,,amenity,55.68070284544083,12.56443553885647,0.47712442885758083
1258,,tourism,55.68784856685689,12.562165654740575,0.6421144539526586
1259,,amenity,55.6865466476413,12.568978131438117,0.30052215854667724
1260,,amenity,55.68852554999998,12.5700344,0.5195656326913353
1261,Fritløbsområde Nørre Voldgade,leisure,55.68108864865022,12.568687332635676,0.31405638744559067
1262,,amenity,55.68198488285422,12.571500947423768,0.24279022613312268
1263,,amenity,55.681960648638864,12.571328007693358,0.2398647553880301
1264,,amenity,55.68246173028347,12.574193617635474,0.3312856201785958
1265,,leisure,55.68992401878797,12.56621704379207,0.7062292489731387
1266,,leisure,55.68440242388949,12.559786529098654,0.6170916282748122
1267,,leisure,55.68870069315629,12.568323953415002,0.5436832663749654
1268,,leisure,55.68388512672557,12.562885430181721,0.4192891693415926
1269,,amenity,55.68400363550001,12.572942356078187,0.21384968657607786
1270,Nørre Voldgade Hundepark,leisure,55.67981474212433,12.567022503943747,0.47837160210704194
1271,Nørre Voldgade Hundepark,leisure,55.68046562254175,12.567858393620508,0.39337131998740477
1272,,amenity,55.68791609939699,12.572261380979699,0.48197379863433
1273,,amenity,55.6876100540986,12.57194634293943,0.44314159143706444
1274,,amenity,55.688404860736284,12.5731203586085,0.5528676002193564
1275,,amenity,55.6866214189696,12.57035794675604,0.31084710138455107
1276,,leisure,55.68276123347045,12.568078489520293,0.15406250785870224
1277,,leisure,55.682944015611184,12.568672334672979,0.11667799757828388
1278,,amenity,55.680383028758975,12.564579729850307,0.49824501398755755
1279,,amenity,55.68102763113404,12.570063160748301,0.31774912680383655
1280,,amenity,55.68422797131861,12.57353270430641,0.253645833059349
1281,,amenity,55.68373789553125,12.57276499042423,0.20266093274842542
1282,,amenity,55.6835179749354,12.572460148191418,0.18705536291421332
1283,,amenity,55.683238667587155,12.572015407686543,0.17005327177895344
1284,,amenity,55.68289087710176,12.571284886118814,0.15395060589040516
1285,,amenity,55.682693898094605,12.571110498206663,0.1633278018215477
1286,,amenity,55.682572611202346,12.571227423199044,0.17855610940407043
1287,,amenity,55.67999346868503,12.575417900943268,0.5675997030006038
1288,,leisure,55.68273552512915,12.567719349168351,0.17071591030252917
1289,,amenity,55.68040618142522,12.566461782951986,0.43153770080088877
1290,,amenity,55.68437263627609,12.573582311769956,0.2597364257106894
1291,,amenity,55.684178699279705,12.573298668028487,0.23826148459566054
1292,,amenity,55.684071338307554,12.573071354252658,0.222587873263523
1293,,amenity,55.68392863710062,12.572920816085517,0.21206386787781228
1294,,amenity,55.683825818473,12.572690815735413,0.19753839424635966
1295,,amenity,55.68320299686897,12.571798641576537,0.15952578936579756
1296,,amenity,55.68334759927971,12.571946668028483,0.16139032500693792
1297,,amenity,55.683607042493826,12.572434987011002,0.1836867529413612
1298,,amenity,55.68352139686899,12.572223941576537,0.17246379729294598
1299,,amenity,55.684713319410626,12.57418942911876,0.306588835486104
1300,,amenity,55.682630086799065,12.574034262032283,0.3138191520944505
1301,,amenity,55.68246173093197,12.574193612359428,0.3312852935428376
1302,,tourism,55.68591744999999,12.576509999999999,0.4936663926990327
1303,,amenity,55.68718295,12.57148255,0.3886680743686147
1304,Staudekvarteret,leisure,55.68554098063049,12.571604211629117,0.22674912622698853
1305,Det Kongelige Vajsenhus,amenity,55.68405744944537,12.566576867060807,0.18828740915994302
1306,,amenity,55.68335429719022,12.56393500084565,0.35784779838409453
1307,,amenity,55.687430416632594,12.57133401705049,0.41229057514043804
1308,,leisure,55.68820452082341,12.571116460524062,0.4928668347038902
1309,Statens Naturhistoriske Museum,tourism,55.68738939769982,12.576989219107157,0.6104744774101921
1310,,amenity,55.68647103963468,12.575791333952818,0.4879724384940152
1311,,amenity,55.684472882019,12.575066086250496,0.35338990982110574
1312,,amenity,55.68456731064574,12.574706862528918,0.33353807454046214
1313,,amenity,55.68429845970591,12.576089183403619,0.4140415495577236
1314,,amenity,55.6842312,12.575986899999995,0.4068376790114418
1315,,amenity,55.68433095217308,12.575576013613366,0.3824709295092696
1316,,amenity,55.6845182061879,12.576691399751931,0.45493905975484
1317,,amenity,55.68424579526868,12.576591649475487,0.44485464811632913
1318,,amenity,55.684651721956094,12.577097703679124,0.4826541210324031
1319,Stenhøjene (alpine planter),leisure,55.68640104440729,12.572697935192155,0.3446432357227081
1320,Dansk Kvarter,leisure,55.68750036196977,12.575125914670556,0.5353475856124302
1321,,amenity,55.68077092655141,12.56830647576134,0.35347429820881676
1322,Rundetårn,tourism,55.68136206844163,12.5757937925998,0.4816320529671765
1323,,amenity,55.6832281831021,12.563298745433512,0.39966690488756784
1324,,amenity,55.68386111179981,12.563511058105071,0.37993223655108443
1325,,leisure,55.680927218269595,12.563424013339345,0.5056382123311083
1326,,amenity,55.68546429999999,12.565146899999998,0.3292043118311376
1327,,amenity,55.685421136262114,12.565055386192915,0.33152935005076867
1328,,amenity,55.68538074479003,12.565126403015574,0.3253755210857317
1329,,amenity,55.68539130541375,12.565292507874517,0.3171125184731318
1330,,amenity,55.68531169397416,12.565420488630023,0.3055854134281516
1331,,amenity,55.68531946866629,12.565236017428798,0.3159522614888533
1332,,amenity,55.68524831791627,12.56536240791149,0.3050804036567592
1333,,amenity,55.685206400000006,12.56543645,0.29871036155656566
1334,,amenity,55.68515131670565,12.565535411983436,0.2902636367207837
1335,,amenity,55.68517650602584,12.565660211369979,0.28488393519046573
1336,,amenity,55.685039149999994,12.565915899999998,0.2632863201179116
1337,,amenity,55.684971093974156,12.566038988630021,0.2528212316545937
1338,,amenity,55.68495531910296,12.56588974978923,0.2602413697812572
1339,,amenity,55.684890132182055,12.566183916835016,0.24049724785812127
1340,,amenity,55.68480589383886,12.566333338626308,0.22780927436274104
1341,,amenity,55.68474374999999,12.56626655,0.2285095630414001
1342,,amenity,55.684714036262115,12.566317886192914,0.22418252815399872
1343,,amenity,55.6845283,12.5668393,0.1857957936355953
1344,,amenity,55.68459797152782,12.566712675929054,0.1962225369398687
1345,,amenity,55.6845634,12.5667751,0.19106240972327376
1346,,amenity,55.684633950000006,12.566647299999998,0.20163509161231885
1347,,amenity,55.68440635,12.56687165,0.17892687512310265
1348,,amenity,55.68441398861546,12.567040880656998,0.16924175309558795
1349,,amenity,55.68401340044891,12.568030816319677,0.09701462157041148
1350,,amenity,55.684092505135034,12.56779159180193,0.11349536152373166
1351,,amenity,55.68390587283946,12.568264929709768,0.08102406457177687
1352,,amenity,55.68400260076481,12.567793627817936,0.11158065396592265
1353,,amenity,55.68389254727561,12.568074366181914,0.09293834043933674
1354,,amenity,55.68355463352567,12.569167224740013,0.04233270069230546
1355,,amenity,55.683250898900646,12.569965767172805,0.07337338580489974
1356,,amenity,55.6832121,12.57006745,0.07980802046071211
1357,,amenity,55.683159998962985,12.570203517101795,0.08875734033880639
1358,,amenity,55.68310010133089,12.570357832889707,0.09931184863363328
1359,,amenity,55.682982900000006,12.5703932,0.11176682748247578
1360,,amenity,55.682610881621855,12.568322145579648,0.15978773454507994
1361,,amenity,55.68289527237338,12.568009029538707,0.1453009335399747
1362,,amenity,55.68313880335744,12.568232407586224,0.11598573336006517
1363,,amenity,55.68327430652598,12.568289942307707,0.10318443869111246
1364,,amenity,55.68332812720186,12.56897341560465,0.07013582386680889
1365,,amenity,55.68315031724438,12.569979518131378,0.08420781475224463
1366,,amenity,55.68445528861547,12.566966280656997,0.17529382738105184
1367,,amenity,55.68511059397415,12.56577498863002,0.2749383692797979
1368,,amenity,55.68262673501321,12.569000483041396,0.14235429386659612
1369,,amenity,55.6825224364721,12.568875113746888,0.1556112156406801
1370,,amenity,55.68295921236573,12.569408830414655,0.10145437879742636
1371,,amenity,55.68270096132554,12.569090929456829,0.13300043712218138
1372,,amenity,55.683039266738525,12.569507851494338,0.09218576275115906
1373,,amenity,55.68281166673853,12.56922805149434,0.11923095115303536
1374,,amenity,55.682438689859445,12.568774660600438,0.16634460867632203
1375,,amenity,55.68314973501321,12.569645383041395,0.08006580320595037
1376,,amenity,55.6825763257291,12.567825241207764,0.18009101379111128
1377,,amenity,55.68524819397416,12.565543088630024,0.295313858932264
1378,,amenity,55.683013483547164,12.570316364824013,0.10651087218090344
1379,,amenity,55.683044402184784,12.570239614271069,0.10129581157100234
1380,,amenity,55.683075085759256,12.570162929065138,0.09618919669245243
1381,,amenity,55.68324020988303,12.569557381736034,0.06977429455282978
1382,,amenity,55.68326815665922,12.569484948674667,0.06679185859153731
1383,,amenity,55.68329525,12.569414649999999,0.06422222217697171
1384,,amenity,55.68332270982803,12.569343482006456,0.06198079967526534
1385,,amenity,55.68334927667693,12.569274582865111,0.06019951008167609
1386,,amenity,55.6836558098429,12.56848863204854,0.07084850973365854
1387,,amenity,55.683629226690016,12.568557582831357,0.06787078975236709
1388,,amenity,55.68360177993485,12.568628715955871,0.06510171850128052
1389,,amenity,55.68403336637286,12.567711686193855,0.11718216695531024
1390,,amenity,55.684545549999996,12.566619850000002,0.19926453112464002
1391,,amenity,55.682089425603905,12.568909488027158,0.201971718692985
1392,,amenity,55.684184755025086,12.569001197315007,0.04948960167590684
1393,,amenity,55.684069583636635,12.568858705133751,0.04905685312319362
1394,Fritløbsområde Sølvgade v. Botanisk Have,leisure,55.688138135535134,12.576641472116023,0.6519376949805802
1395,,amenity,55.681161298158706,12.56240737576592,0.5409931029459052
1396,,amenity,55.68143258264525,12.562724711337324,0.5077856122228585
1397,,amenity,55.68123566236031,12.56425306719015,0.4437220933367825
1398,,amenity,55.681406084700036,12.563800989976647,0.45375638573320165
1399,,amenity,55.681823972857636,12.56242272193554,0.5027897486903901
1400,,amenity,55.68162055852148,12.563230205517868,0.46972578937657555
1401,,amenity,55.68322833294426,12.567150946920453,0.16688164660758292
1402,,leisure,55.68371832549053,12.567527914328979,0.1283376779979027
1403,,leisure,55.683660249693254,12.564138312349739,0.34125404829781003
1404,,amenity,55.68520715870058,12.570377694563685,0.15801568271932856
1405,,amenity,55.68519094072249,12.570226955150225,0.15341909868222908
1406,,amenity,55.68510556587261,12.57011937326534,0.14246364229887104
1407,,amenity,55.684856193543,12.569814287491466,0.11138025253979361
1408,,amenity,55.684832085232806,12.569914017127472,0.10985650270673022
1409,,amenity,55.684683945492466,12.569735492718745,0.09170227000535193
1410,,amenity,55.6850757712115,12.570217651225212,0.14096811325159647
1411,,amenity,55.68523902639645,12.570285174957583,0.15959074434699955
1412,,amenity,55.68478833468958,12.569860680987977,0.10441949507665382
1413,,leisure,55.68242184096421,12.566748635238655,0.23866720738055622
1414,,amenity,55.681419173705045,12.564758757081593,0.4063803937130171
1415,Souls,amenity,55.683616150000006,12.569339199999998,0.030938846117569436
1416,,shop,55.68370825130871,12.569243882600869,0.02618524039286451
1417,,amenity,55.68036625,12.5673985,0.4126022904123179
1418,,amenity,55.6809159991475,12.56813547811959,0.34039709858829426
1419,,amenity,55.680075328805586,12.567020647078165,0.4511539887290339
1420,,amenity,55.67967444824478,12.56653767058601,0.503795405812421
1421,,amenity,55.67948786794444,12.576876372414667,0.6708383478156659
1422,,amenity,55.679453879144894,12.57678020600034,0.6694700856800864
1423,,amenity,55.67947408384787,12.576837077907124,0.6702619701054425
1424,,amenity,55.679444893673974,12.576754417956533,0.669105065846566
1425,,amenity,55.679356509717266,12.576505231498766,0.6659795173499357
1426,,amenity,55.679386107050526,12.576588166268216,0.6669492920051494
1427,,amenity,55.679371247658665,12.57654664388884,0.6664602339598011
1428,,amenity,55.67954648251576,12.577042123569232,0.673365078202403
1429,,amenity,55.67941489222078,12.576669871674216,0.6679899054528344
1430,,amenity,55.679429313520224,12.57671105298343,0.6685417448194073
1431,,amenity,55.6794598432962,12.57679716635445,0.6697085499462357
1432,,amenity,55.67951596521195,12.57695592178246,0.6720268099210028
1433,,amenity,55.67940036460516,12.576629371053828,0.6674889060277317
1434,,amenity,55.6795309229445,12.576997805082918,0.672659372583375
1435,,amenity,55.67950181219454,12.576915554939978,0.6714090695478478
1436,Lysthaven,leisure,55.685749132721696,12.57677121737192,0.5001552723121856
1437,,amenity,55.6874118410568,12.562731162448486,0.5829118890519115
1438,,amenity,55.6874118410568,12.562731162448486,0.5829118890519115
1439,,amenity,55.687360352406856,12.56266373299619,0.582194987721857
1440,Den hemmelige have,leisure,55.68710513242358,12.569397864725735,0.3606611444007022
1441,,leisure,55.6831973458422,12.569203222197531,0.07769257582405709
1442,,leisure,55.68360745,12.56922305,0.03550299964514932
1443,,leisure,55.68369165,12.569001149999998,0.03972132639795275
1444,,leisure,55.68410657998013,12.569524237005263,0.02673886874120024
1445,,leisure,55.68409826253671,12.569890523104517,0.03345266896051727
1446,,amenity,55.6836306,12.575526300000002,0.3767612600489264
1447,,amenity,55.68083974953769,12.571134821669075,0.35144429654273945
1448,,amenity,55.68091989103946,12.571136917021889,0.3429352052787331
1449,,amenity,55.68005870815658,12.56753133759624,0.44261759216141094
1450,,amenity,55.679922430954555,12.56733413965958,0.4607739905501948
1451,,amenity,55.679988048838034,12.56742134493788,0.4521607354934034
1452,,amenity,55.67985343101039,12.567235589467348,0.4699858602951582
1453,,amenity,55.67977003101039,12.56713548946735,0.48077570333917113
1454,,amenity,55.67969984792818,12.567039432127938,0.4901097720120414
1455,,amenity,55.67961813095456,12.566944339659583,0.5006579590924097
1456,,amenity,55.67954194798275,12.566844681950569,0.5107350270897679
1457,,amenity,55.68031622947704,12.567835572312703,0.4097836913830259
1458,,amenity,55.68039614798276,12.567936781950566,0.39954135779812255
1459,,amenity,55.68047084798274,12.568033981950565,0.3899620951520343
1460,,amenity,55.6805514161525,12.568142965398573,0.3796130275443824
1461,,amenity,55.68204594823204,12.56881682423839,0.20793370335612738
1462,,leisure,55.68740349831254,12.574139673162197,0.4881945710657278
1463,,leisure,55.68064635000001,12.564720250000002,0.47001435780452466
1464,Rhododendron-kvarteret,leisure,55.68692105561936,12.572266942704244,0.3805311959859965
1465,,amenity,55.68584658077991,12.572534006305867,0.2894489729510229
1466,,amenity,55.68683612414468,12.56207360919505,0.5748874489858037
1467,,amenity,55.68201935855886,12.576919455687936,0.5070775223562339
1468,,amenity,55.682987661515774,12.575674280203762,0.3973982764417178
1469,,leisure,55.68251320539726,12.568271387425106,0.17086765323807288
